Fuel Type Code,Station Name,Street Address,Intersection Directions,City,State,ZIP,Plus4,Station Phone,Status Code,Expected Date,Groups With Access Code,Access Days Time,Cards Accepted,BD Blends,NG Fill Type Code,NG PSI,EV Level1 EVSE Num,EV Level2 EVSE Num,EV DC Fast Count,EV Other Info,EV Network,EV Network Web,Geocode Status,Latitude,Longitude,Date Last Confirmed,ID,Updated At,Owner Type Code,Federal Agency ID,Federal Agency Name,Open Date,Hydrogen Status Link,NG Vehicle Class,LPG Primary,E85 Blender Pump,EV Connector Types,Country,Intersection Directions (French),Access Days Time (French),BD Blends (French),Groups With Access Code (French),Hydrogen Is Retail,Access Code,Access Detail Code,Federal Agency Code,Facility Type,CNG Dispenser Num,CNG On-Site Renewable Source,CNG Total Compression Capacity,CNG Storage Capacity,LNG On-Site Renewable Source,E85 Other Ethanol Blends,EV Pricing,EV Pricing (French),LPG Nozzle Types,Hydrogen Pressures,Hydrogen Standards,CNG Fill Type Code,CNG PSI,CNG Vehicle Class,LNG Vehicle Class,EV On-Site Renewable Source,Restricted Access,RD Blends,RD Blends (French),RD Blended with Biodiesel,RD Maximum Biodiesel Level,NPS Unit Name,CNG Station Sells Renewable Natural Gas,LNG Station Sells Renewable Natural Gas,Maximum Vehicle Class,EV Workplace Charging
ELEC,Hollywood Hotel,1160 N. Vermont Ave.,,Hollywood,CA,90029,,888-998-2546,E,,Public,MON: 24 hours | TUE: 24 hours | WED: 24 hours | THU: 24 hours | FRI: 24 hours | SAT: 24 hours | SUN: 24 hours,,,,,,3,,,Blink Network,http://www.blinkcharging.com/,GPS,34.092846,-118.291554,2014-01-30,-9190606744207078477,,,,,,,,,,,US,,,,Public,,public,,,,,,,,,,,,,,,,,,,,,,,,,,,,,
ELEC,Hotel Indigo - JuiceCar,500 College Ave,College Ave & E Dougherty St,Athens,GA,30601,,706-304-0915,E,,Public,Hotel guest and JuiceCar member use only; pay lot,,,,,,2,,,,,200-8,33.962319,-83.376296,,-7348996328237711542,,P,,,,,,,,,US,,,,Public,,public,,,,,,,,,,,,,,,,,,,,,,,,,,,,,
ELEC,PLANETARY HQ,1 Icon,,Lake Forest,CA,92610,,888-758-4389,E,,Public,24 hours daily,,,,,,2,,,ChargePoint Network,http://www.chargepoint.com/,,,,2014-01-30,-6411677183310578734,,,,,,,,,,,US,,,,Public,,public,,,,,,,,,,,,,,,,,,,,,,,,,,,,,
ELEC,Kumquat Mae Cafe - JuiceCar,18 S Barnett Shoals Rd,Greensboro Hwy & Barnett Shoals Rd,Athens,GA,30605,,706-304-0915,E,,Public,24 hours daily,,,,,,1,,,,,200-8,33.86075599999999,-83.405695,,-6186538707068697690,,P,,,,,,,,,US,,,,Public,,public,,,,,,,,,,,,,,,,,,,,,,,,,,,,,
ELEC,BEDFORD,24 Parkway,,Katonah,NY,10536,,888-758-4389,E,,Public,24 hours daily,,,,,,2,,,ChargePoint Network,http://www.chargepoint.com/,,,,2014-01-30,-5144732784141615669,,,,,,,,,,,US,,,,Public,,public,,,,,,,,,,,,,,,,,,,,,,,,,,,,,
ELEC,Elk Cove Vineyards,27751 NW Olson Rd,,Gaston,OR,97119,,503-985-7760,E,,Public,9am-5pm daily,,,,,,1,,1 Tesla Conductive,,,200-8,45.4152149,-123.1852316,,-5028180158457757307,,P,,,,,,,,,US,,,,Public,,public,,,,,,,,,,,,,,,,,,,,,,,,,,,,,
ELEC,Consumers Energy,11797 Farmington Rd,,Livonia,MI,48150,,517-930-4568,P,2014-03-15,PLANNED - not yet accessible (Public),,,,,,,4,,,,,200-8,42.36958629999999,-83.37226729999999,,-4523563586654259448,,P,,,,,,,,,US,,,,PRÉVU - pas encore accessible (Public),,public,,,,,,,,,,,,,,,,,,,,,,,,,,,,,
ELEC,City of Lafayette - Bob L. Burger Recreation Center,111 W Baseline Rd,,Lafayette,CO,80026,,303-665-0469,E,,Public,24 hours daily,,,,,,2,,,,,200-8,40.0002418,-105.0906271,,-3472266266211434341,,LG,,,,,,,,,US,,,,Public,,public,,,,,,,,,,,,,,,,,,,,,,,,,,,,,
ELEC,American Lung Association - Denver Clean Cities,5600 Greenwood Plaza Blvd,,Greenwood Village,CO,80111,,303-388-4327,E,,Public,8am-5pm M-F; Employee and guest use only; must obtain key from main office,,,,,,1,,,,,200-8,39.614658,-104.89842,,-3434389093636814946,,P,,,,,,,,,US,,,,Public,,public,,,,,,,,,,,,,,,,,,,,,,,,,,,,,
ELEC,Santa Clara Convention Center,5001 Great America Parkway,,Santa Clara,CA,95054,,888-998-2546,E,,Public,MON: 24 hours | TUE: 24 hours | WED: 24 hours | THU: 24 hours | FRI: 24 hours | SAT: 24 hours | SUN: 24 hours,,,,,,5,,,Blink Network,http://www.blinkcharging.com/,GPS,37.403617,-121.977605,2014-01-30,-3312916737131823384,,,,,,,,,,,US,,,,Public,,public,,,,,,,,,,,,,,,,,,,,,,,,,,,,,
ELEC,Washington Department of Transportation ELG,7345 Linderson Way SW,,Tunwater,WA,98501,,888-998-2546,E,,Public,MON: 24 hours | TUE: 24 hours | WED: 24 hours | THU: 24 hours | FRI: 24 hours | SAT: 24 hours | SUN: 24 hours,,,,,,2,,,Blink Network,http://www.blinkcharging.com/,GPS,46.97804199999999,-122.873527,2014-01-30,-3191451313086351819,,,,,,,,,,,US,,,,Public,,public,,,,,,,,,,,,,,,,,,,,,,,,,,,,,
ELEC,Cal State Northridge - Lot F5,18111 Nordhoff St,"North University Drive, at Matador Drive",Northridge,CA,91330,,818-677-1200,E,,Public,24 hours daily; parking permit required,,,,,,,,,,,GPS,34.243172,-118.5296,,-2773043119458204990,,P,,,,,,,,,US,,,,Public,,public,,,,,,,,,,,,,,,,,,,,,,,,,,,,,
ELEC,City of Lafayette - City Hall,1290 S Public Rd,,Lafayette,CO,80026,,303-665-5588,E,,Public,24 hours daily,,,,,,1,,,,,200-8,39.9874572,-105.0899833,,-508047281958534647,,LG,,,,,,,,,US,,,,Public,,public,,,,,,,,,,,,,,,,,,,,,,,,,,,,,
ELEC,Edison ParkFast #122,220 South St,Mounted in back lot near building,New York,NY,10002,,888-727-5327,E,,Public,Restricted to garage hours; pay lot,,,,,1,1,,,,,GPS,40.70968628,-73.99451447,,-47940242048595896,,P,,,,,,,,,US,,,,Public,,public,,,,,,,,,,,,,,,,,,,,,,,,,,,,,
ELEC,Sacramento County Public Garage,725 7th St,7th St & G St,Sacramento,CA,95814,,888-758-4389,E,,Public,24 hours daily; pay lot,,,,,,,,1 SP Inductive,,,GPS,38.58431244,-121.4956055,2012-12-31,1495,2014-01-20 18:11:41 UTC,P,,,,,,,,,US,,,,Public,,public,,,,,,,,,,,,,,,,,,,,,,,,,,,,,
ELEC,City of Sacramento - Capitol Parking Garage,1015 L St,"At 10th and L, 2nd Level",Sacramento,CA,95814,,888-758-4389  916-264-5011,E,,Public,Garage business hours; pay lot,,,,,3,,,3 SP Inductive,,,GPS,38.5783802,-121.4926,2012-12-31,1498,2014-01-20 18:07:19 UTC,LG,,,,,,,,,US,,,,Public,,public,,,,,,,,,,,,,,,,,,,,,,,,,,,,,
ELEC,Bank of the West Tower,500 Capitol Mall,"Main Entrance, Level P1",Sacramento,CA,95814,,888-758-4389,E,,Public,24 hours daily; pay lot,,,,,,,,1 LP Inductive  1 Avcon Conductive,,,GPS,38.57798004,-121.501709,2012-03-31,1507,2014-01-20 18:19:44 UTC,P,,,,,,,,,US,,,,Public,,public,,,,,,,,,,,,,,,,,,,,,,,,,,,,,
ELEC,Park Tower,805 J St,,Sacramento,CA,95814,,916-442-2217,E,,Public,Garage business hours; pay lot,,,,,,4,,,,,GPS,38.58085,-121.4953,2013-12-31,1515,,P,,,,,,,,,US,,,,Public,,public,,,,,,,,,,,,,,,,,,,,,,,,,,,,,
ELEC,LADWP - Truesdale Center,11791 Truesdale St,,Sun Valley,CA,91352,,,E,,Private - Government only,,,,,,,,,2 Conductive 240V,,,200-8,34.2491037,-118.3875613,2012-12-31,1517,,LG,,,,,,,,,US,,,,Privé - Réservé au gouvernement,,private,GOVERNMENT,,,,,,,,,,,,,,,,,,,,,,,,,,,,
ELEC,LADWP - West LA District Office,1394 S Sepulveda Blvd,,Los Angeles,CA,90024,,,E,,Private - Government only,,,,,,,,,6 Conductive 240V,,,200-8,34.0504479,-118.4466778,2012-12-31,1519,,LG,,,,,,,,,US,,,,Privé - Réservé au gouvernement,,private,GOVERNMENT,,,,,,,,,,,,,,,,,,,,,,,,,,,,
ELEC,Southern California Edison - Rosemead Office Building 1 ,2244 Walnut Grove Ave,Station is located in lot off of Rush Street,Rosemead,CA,91770,,888-758-4389,E,,Private,,,,,,,4,,2 SP Inductive,,,200-8,34.0532105,-118.0817627,2012-07-31,1520,2014-01-20 18:05:25 UTC,T,,,,,,,,,US,,,,Privé,,private,,,,,,,,,,,,,,,,,,,,,,,,,,,,,
ELEC,Los Angeles Convention Center,1201 S Figueroa St,West hall,Los Angeles,CA,90015,,213-741-1151,E,,Public,24 hours daily; pay lot,,,,,1,2,,,,,200-8,34.0401988,-118.2695539,2013-12-31,1523,,P,,,,,,,,,US,,,,Public,,public,,,,,,,,,,,,,,,,,,,,,,,,,,,,,
ELEC,South Coast Air Quality Management District,21865 E Copley Dr,,Diamond Bar,CA,91765,,909-396-2000,E,,Public,24 hours daily,,,,,14,,,2 SP Inductive,,,200-8,34.002107,-117.8290451,2012-07-31,1524,,P,,,,,,,,,US,,,,Public,,public,,,,,,,,,,,,,,,,,,,,,,,,,,,,,
ELEC,LADWP - Parking,111 N Hope St,Across Hope,Los Angeles,CA,90012,,800-473-3652,E,,Public,24 hours daily,,,,,,51,,,,,200-8,34.057593,-118.248854,2013-12-31,1525,,LG,,,,,,,,,US,,,,Public,,public,,,,,,,,,,,,,,,,,,,,,,,,,,,,,
ELEC,Cherokee-Whitley Garage,1718 N Cherokee Ave,,Los Angeles,CA,90028,,323-957-9211,E,,Public,24 hours daily; pay lot,,,,,,4,,,,,200-8,34.1022448,-118.3347468,2012-12-31,1526,,P,,,,,,,,,US,,,,Public,,public,,,,,,,,,,,,,,,,,,,,,,,,,,,,,
ELEC,Figueroa Tower Parking Garage,801 S Figueroa St,,Los Angeles,CA,90017,,310-777-5000,E,,Public,Garage business hours; pay lot,,,,,,4,,,,,200-8,34.047834,-118.261897,2013-12-31,1527,,P,,,,,,,,,US,,,,Public,,public,,,,,,,,,,,,,,,,,,,,,,,,,,,,,
ELEC,Southern California Edison - Covina Service Center,800 W Cienega Ave,,San Dimas,CA,91773,,,E,,Private,,,,,,,2,,13 SP Inductive,,,200-8,34.102163,-117.822149,2012-07-31,1529,,T,,,,,,,,,US,,,,Privé,,private,,,,,,,,,,,,,,,,,,,,,,,,,,,,,
ELEC,LADWP - Haynes Power Plant,6801 Westminster Ave,,Long Beach,CA,90803,,,E,,Private - Government only,,,,,,,,,1 SP Inductive,,,200-8,33.7591913,-118.0085681,2012-12-31,1531,,LG,,,,,,,,,US,,,,Privé - Réservé au gouvernement,,private,GOVERNMENT,,,,,,,,,,,,,,,,,,,,,,,,,,,,
ELEC,State Capitol Parking Garage,1303 10th St,At 12th and N St,Sacramento,CA,95814,,,E,,Private - Government only,Permitted state employees only,,,,,,,,1 LP Inductive  1 SP Inductive  1 Avcon Conductive  1 Other Conductive,,,200-8,38.57596,-121.495,2012-11-30,1533,2014-01-20 18:35:36 UTC,SG,,,,,,,,,US,,,,Privé - Réservé au gouvernement,,private,GOVERNMENT,,,,,,,,,,,,,,,,,,,,,,,,,,,,
ELEC,Downtown Plaza Garage ,3rd St and L St,Lot G. Alternate entrance at 5th & J St.,Sacramento,CA,95814,,916-264-5011,E,,Public,24 hours daily; pay lot,,,,,,3,,1 SP Inductive,,,GPS,38.58188,-121.501,2013-02-25,1536,2014-01-20 18:20:20 UTC,LG,,,,,,,,,US,,,,Public,,public,,,,,,,,,,,,,,,,,,,,,,,,,,,,,
ELEC,CITYOFSANTAROSA,100 Santa Rosa Ave,,Santa Rosa,CA,95404,,888-758-4389,E,,Public,24 hours daily,,,,,2,2,,,ChargePoint Network,http://www.chargepoint.com/,200-8,38.4380517,-122.711357,2014-01-30,1546,2014-01-30 08:31:13 UTC,,,,,,,,,,US,,,,Public,,public,,,,,,,,,,,,,,,,,,,,,,,,,,,,,
ELEC,LADWP - Wilmington,161 N Island Ave,At B St,Wilmington,CA,90744,,,E,,Private - Government only,,,,,,,,,4 Conductive 240V,,,200-8,33.7705833,-118.2656449,2012-12-31,1552,,LG,,,,,,,,,US,,,,Privé - Réservé au gouvernement,,private,GOVERNMENT,,,,,,,,,,,,,,,,,,,,,,,,,,,,
ELEC,LADWP - Sylmar Center,13101 Sepulveda Blvd,,Sylmar,CA,91344,,,E,,Private - Government only,,,,,,,,,2 Conductive 240V,,,200-8,34.3108852,-118.4874,2012-12-31,1556,,LG,,,,,,,,,US,,,,Privé - Réservé au gouvernement,,private,GOVERNMENT,,,,,,,,,,,,,,,,,,,,,,,,,,,,
ELEC,Southern California Edison - Whittier Service Center,9901 Geary Ave,,Santa Fe Springs,CA,90670,,,E,,Private,,,,,,,,,1 LP Inductive  1 SP Inductive,,,200-8,33.947829,-118.0749531,2012-07-31,1558,,T,,,,,,,,,US,,,,Privé,,private,,,,,,,,,,,,,,,,,,,,,,,,,,,,,
ELEC,DGS 24 4HR. MAX,1500 10th St,,Sacramento,CA,95814,,888-758-4389,E,,Public,24 hours daily,,,,,,3,,,ChargePoint Network,http://www.chargepoint.com/,200-8,38.5748051,-121.4958754,2014-01-30,1567,2014-01-30 09:21:24 UTC,,,,,,,,,,US,,,,Public,,public,,,,,,,,,,,,,,,,,,,,,,,,,,,,,
ELEC,LADWP - EV Service Center,1630 N Main St,,Los Angeles,CA,90012,,,E,,Private - Government only,,,,,,,,,7 SP Inductive  4 Avcon Conductive,,,200-8,34.066854,-118.2274711,2012-12-31,1572,,LG,,,,,,,,,US,,,,Privé - Réservé au gouvernement,,private,GOVERNMENT,,,,,,,,,,,,,,,,,,,,,,,,,,,,
ELEC,LADWP - Fairfax Center,2311 S Fairfax Ave,,Los Angeles,CA,90016,,,E,,Private - Government only,,,,,,,,,2 Conductive 240V,,,200-8,34.036482,-118.3694,2012-12-31,1573,,LG,,,,,,,,,US,,,,Privé - Réservé au gouvernement,,private,GOVERNMENT,,,,,,,,,,,,,,,,,,,,,,,,,,,,
ELEC,LADWP - Ducommun Center,433 E Temple St,,Los Angeles,CA,90012,,,E,,Private - Government only,,,,,,,2,,2 Conductive 240V,,,200-8,34.0506814,-118.236336,2012-12-31,1575,,LG,,,,,,,,,US,,,,Privé - Réservé au gouvernement,,private,GOVERNMENT,,,,,,,,,,,,,,,,,,,,,,,,,,,,
ELEC,California Air Resources Board,9530 Telstar Ave,,El Monte,CA,91731,,626-575-6800,E,,Public,24 hours daily,,,,,2,1,,1 SP Inductive,,,GPS,34.06872,-118.064,2013-12-31,1583,,P,,,,,,,,,US,,,,Public,,public,,,,,,,,,,,,,,,,,,,,,,,,,,,,,
ELEC,LADWP - Palmetto Center,1212 Palmetto St,,Los Angeles,CA,90013,,,E,,Private - Government only,,,,,,,,,2 Conductive 240V,,,200-8,34.0400573,-118.2356845,2012-12-31,1589,,LG,,,,,,,,,US,,,,Privé - Réservé au gouvernement,,private,GOVERNMENT,,,,,,,,,,,,,,,,,,,,,,,,,,,,
ELEC,Southern California Edison - Pomona Service Center,265 SE End Ave,,Pomona,CA,91767,,800-438-4636,E,,Public,24 hours daily,,,,,,1,,2 SP Inductive,,,200-8,34.0630077,-117.7239787,2012-07-31,1592,,T,,,,,,,,,US,,,,Public,,public,,,,,,,,,,,,,,,,,,,,,,,,,,,,,
ELEC,HP,3000 Hanover St,,Palo Alto,CA,94304,,888-758-4389,E,,Public,24 hours daily,,,,,,4,,,ChargePoint Network,http://www.chargepoint.com/,200-8,37.4147446,-122.1463464,2014-01-30,1593,2014-01-30 09:28:58 UTC,,,,,,,,,,US,,,,Public,,public,,,,,,,,,,,,,,,,,,,,,,,,,,,,,
ELEC,State Capitol Parking Garage,1303 10th St,At 12th and N St,Sacramento,CA,95814,,,E,,Private - Government only,Permitted state employees only,,,,,,,,1 SP Inductive  4 Avcon Conductive,,,200-8,38.57596,-121.495,2012-11-30,1594,2014-01-20 18:35:36 UTC,SG,,,,,,,,,US,,,,Privé - Réservé au gouvernement,,private,GOVERNMENT,,,,,,,,,,,,,,,,,,,,,,,,,,,,
ELEC,Monti's La Casa Vieja Steakhouse,100 S. Mill Ave.,,Tempe,AZ,85281,,888-998-2546,E,,Public,MON: 24 hours | TUE: 24 hours | WED: 24 hours | THU: 24 hours | FRI: 24 hours | SAT: 24 hours | SUN: 24 hours,,,,,,2,,,Blink Network,http://www.blinkcharging.com/,GPS,33.429212,-111.940812,2014-01-30,5045,2014-01-29 08:12:13 UTC,,,,,,,,,,US,,,,Public,,public,,,,,,,,,,,,,,,,,,,,,,,,,,,,,
ELEC,Scripps Green Hospital,10666 N Torrey Pines Rd,"Patient Parking Structure, level G",La Jolla,CA,92037,,858-554-9100,E,,Public,24 hours daily,,,,,,2,,,,,GPS,32.89947,-117.243,2013-12-31,6355,,P,,,,,,,,,US,,,,Public,,public,,,,,,,,,,,,,,,,,,,,,,,,,,,,,
ELEC,Macy's #71-553 - Mission Valley - San Diego CA,1702 Camino Del Rio North,,San Diego,CA,92108,,888-998-2546,E,,Public,MON: 10:00am-9:00pm | TUE: 10:00am-9:00pm | WED: 10:00am-9:00pm | THU: 10:00am-9:00pm | FRI: 10:00am-9:00pm | SAT: 10:00am-9:00pm | SUN: 11:00am-7:00pm,,,,,,4,,,Blink Network,http://www.blinkcharging.com/,GPS,32.770182,-117.148134,2014-01-30,6358,2014-01-29 08:15:12 UTC,,,,,,,,,,US,,,,Public,,public,,,,,,,,,,,,,,,,,,,,,,,,,,,,,
ELEC,Santa Monica Place Mall Garage #7 Civic Center ,395 Broadway,1st floor of parking garage,Santa Monica,CA,90401,,310-458-8516,E,,Public,24 hours daily; pay lot,,,,,,1,,1 SP Inductive,,,200-8,34.0150669,-118.4936476,2013-08-31,6377,2014-01-20 18:06:26 UTC,LG,,,,,,,,,US,,,,Public,,public,,,,,,,,,,,,,,,,,,,,,,,,,,,,,
ELEC,Ralph's #292 Santa Monica,1644 Cloverfield Ave,,Santa Monica,CA,90404,,888-998-2546,E,,Public,MON: 24 hours | TUE: 24 hours | WED: 24 hours | THU: 24 hours | FRI: 24 hours | SAT: 24 hours | SUN: 24 hours,,,,,,2,,,Blink Network,http://www.blinkcharging.com/,GPS,34.027125,-118.47324,2014-01-30,6378,2014-01-29 08:09:13 UTC,,,,,,,,,,US,,,,Public,,public,,,,,,,,,,,,,,,,,,,,,,,,,,,,,
ELEC,San Diego Wild Animal Park,15500 San Pasqual Valley Rd,,Escondido,CA,92027,,760-747-8702,P,2013-06-01,PLANNED - not yet accessible (Public), 24 hours daily; pay lot,,,,,1,,,2 LP Inductive,,,200-8,33.0963683,-117.0021843,2012-12-31,6384,,P,,,,,,,,,US,,,,PRÉVU - pas encore accessible (Public),,public,,,,,,,,,,,,,,,,,,,,,,,,,,,,,
ELEC,City of Phx- Sky Harbor Airport Term4,3400 E. Sky Harbor Blvd,,Phoenix,AZ,85034,,888-998-2546,E,,Public,MON: 24 hours | TUE: 24 hours | WED: 24 hours | THU: 24 hours | FRI: 24 hours | SAT: 24 hours | SUN: 24 hours,,,,,,2,,,Blink Network,http://www.blinkcharging.com/,GPS,33.43475,-112.00644,2014-01-30,6386,2014-01-29 08:11:30 UTC,,,,,,,,,,US,,,,Public,,public,,,,,,,,,,,,,,,,,,,,,,,,,,,,,
ELEC,Galpin Motors,15421 Roscoe Blvd,,Sepulveda,CA,91343,,800-256-6219,E,,Public,Dealership business hours,,,,,,2,,,,,200-8,34.221913,-118.468523,2013-01-31,6405,,P,,,,,,,,,US,,,,Public,,public,,,,,,,,,,,,,,,,,,,,,,,,,,,,,
ELEC,Walmart #1912,479 McKinley St,,Corona,CA,92879,,888-998-2546,E,,Public,MON: 24 hours | TUE: 24 hours | WED: 24 hours | THU: 24 hours | FRI: 24 hours | SAT: 24 hours | SUN: 24 hours,,,,,,1,,,Blink Network,http://www.blinkcharging.com/,GPS,33.889948,-117.517297,2014-01-30,6419,2014-01-29 08:20:01 UTC,,,,,,,,,,US,,,,Public,,public,,,,,,,,,,,,,,,,,,,,,,,,,,,,,
ELEC,Galleria at Tyler,1299 Galleria at Tyler,,Riverside,CA,92503,,951-351-3110,E,,Public,24 hours daily,,,,,,4,,,,,GPS,33.91115,-117.4591,2013-12-31,6425,,P,,,,,,,,,US,,,,Public,,public,,,,,,,,,,,,,,,,,,,,,,,,,,,,,
ELEC,Kaiser Permanente - Fontana,9961 Sierra Ave.,,Fontana,CA,92335,,888-998-2546,E,,Public,MON: 24 hours | TUE: 24 hours | WED: 24 hours | THU: 24 hours | FRI: 24 hours | SAT: 24 hours | SUN: 24 hours,,,,,,4,,,Blink Network,http://www.blinkcharging.com/,GPS,34.0733789,-117.435621,2014-01-30,6429,2014-01-29 08:10:03 UTC,,,,,,,,,,US,,,,Public,,public,,,,,,,,,,,,,,,,,,,,,,,,,,,,,
ELEC,Walmart #1693,2050 W Redlands Blvd,,Redlands,CA,92373,,888-998-2546,E,,Public,MON: 24 hours | TUE: 24 hours | WED: 24 hours | THU: 24 hours | FRI: 24 hours | SAT: 24 hours | SUN: 24 hours,,,,,,2,,,Blink Network,http://www.blinkcharging.com/,GPS,34.064535,-117.223142,2014-01-30,6433,2014-01-29 08:20:00 UTC,,,,,,,,,,US,,,,Public,,public,,,,,,,,,,,,,,,,,,,,,,,,,,,,,
ELEC,City of Pasadena - Holly Street Garage,150 E Holly St,,Pasadena,CA,91103,,626-744-7665,E,,Public,Garage business hours; pay lot,,,,,,8,,3 SP Inductive,,,200-8,34.147196,-118.147294,2013-12-31,6505,,LG,,,,,,,,,US,,,,Public,,public,,,,,,,,,,,,,,,,,,,,,,,,,,,,,
ELEC,City of Pasadena - De Lacey Garage,45 De Lacey Ave,,Pasadena,CA,91105,,626-744-7665,E,,Public,24 hours daily; pay lot,,,,,,2,,,,,200-8,34.1449545,-118.1522347,2013-12-31,6506,,LG,,,,,,,,,US,,,,Public,,public,,,,,,,,,,,,,,,,,,,,,,,,,,,,,
ELEC,City of Pasadena - Schoolhouse Garage,33 E Green St,,Pasadena,CA,91105,,626-744-7665,E,,Public,24 hours daily; pay lot,,,,,2,2,,1 SP Inductive,,,200-8,34.1446949,-118.1499088,2013-12-31,6507,,LG,,,,,,,,,US,,,,Public,,public,,,,,,,,,,,,,,,,,,,,,,,,,,,,,
ELEC,Pasadena Hilton - Valet,150 S Los Robles,,Pasadena,CA,91101,,626-577-1000,E,,Public,24 hours daily; pay lot,,,,,,2,,,,,200-8,34.143124,-118.140308,2013-05-31,6508,,P,,,,,,,,,US,,,,Public,,public,,,,,,,,,,,,,,,,,,,,,,,,,,,,,
ELEC,Bristol Farms,606 Fair Oaks Ave,,South Pasadena,CA,91030,,626-441-5450,E,,Public,24 hours daily,,,,,,,,1 LP Inductive,,,200-8,34.1183488,-118.1500456,2012-12-31,6509,,P,,,,,,,,,US,,,,Public,,public,,,,,,,,,,,,,,,,,,,,,,,,,,,,,
ELEC,Anaheim Hilton and Towers - Valet,777 W Convention Way,,Anaheim,CA,92802,,714-750-4321,E,,Public,24 hours daily; pay lot; own charging cable required,,,,,,,,1 LP Inductive,,,200-8,33.8001717,-117.918316,2013-12-31,7133,,P,,,,,,,,,US,,,,Public,,public,,,,,,,,,,,,,,,,,,,,,,,,,,,,,
ELEC,UTA Plaza,9336 Civic Center Dr,,Beverly Hills,CA,90210,,,E,,Private,,,,,,,4,,,,,GPS,34.0742,-118.3985,2012-10-31,7137,,P,,,,,,,,,US,,,,Privé,,private,,,,,,,,,,,,,,,,,,,,,,,,,,,,,
ELEC,Costco,951 Palomar Airport Rd,,Carlsbad,CA,92011,,760-929-0963,E,,Public,24 hours daily,,,,,,,,1 SP Inductive,,,200-8,33.1201381,-117.3165503,2012-10-31,7142,,P,,,,,,,,,US,,,,Public,,public,,,,,,,,,,,,,,,,,,,,,,,,,,,,,
ELEC,Fry's Electronics,1800 Kalama River Ave,,Fountain Valley,CA,92708,,714-378-4400,E,,Public,24 hours daily,,,,,,,,2 LP Inductive,,,200-8,33.7002432,-117.9401496,2012-12-31,7156,,P,,,,,,,,,US,,,,Public,,public,,,,,,,,,,,,,,,,,,,,,,,,,,,,,
ELEC,Waterfront Hilton Resort - Valet,21100 Pacific Coast Hwy,,Huntington Beach,CA,92648,,714-845-8000,E,,Public,24 hours daily; pay lot,,,,,,1,,,,,GPS,33.65315,-117.9938,2013-12-31,7162,,P,,,,,,,,,US,,,,Public,,public,,,,,,,,,,,,,,,,,,,,,,,,,,,,,
ELEC,Southern California Edison - Gateway Business Center,6090 N Irwindale Ave,,Irwindale,CA,91702,,888-758-4389,E,,Public,24 hours daily,,,,,,,,4 SP Inductive,,,GPS,34.12443161,-117.9322433,2013-12-31,7168,2014-01-20 18:05:52 UTC,T,,,,,,,,,US,,,,Public,,public,,,,,,,,,,,,,,,,,,,,,,,,,,,,,
ELEC,Ace Parking - Aventine,3777 La Jolla Village Dr,,San Diego,CA,92122,,888-998-2546,E,,Public,MON: 24 hours | TUE: 24 hours | WED: 24 hours | THU: 24 hours | FRI: 24 hours | SAT: 24 hours | SUN: 24 hours,,,,,,3,,,Blink Network,http://www.blinkcharging.com/,GPS,32.870925,-117.225644,2014-01-30,7169,2014-01-29 08:17:47 UTC,,,,,,,,,,US,,,,Public,,public,,,,,,,,,,,,,,,,,,,,,,,,,,,,,
ELEC,Hyatt Regency Long Beach - Valet,200 S Pine Ave,,Long Beach,CA,90802,,562-491-1234,E,,Public,24 hours daily; pay lot,,,,,,1,,,,,GPS,33.7637,-118.192,2013-12-31,7172,,P,,,,,,,,,US,,,,Public,,public,,,,,,,,,,,,,,,,,,,,,,,,,,,,,
ELEC,Long Beach Hilton - Valet,2 World Trade Center,,Long Beach,CA,90834,,562-983-3400,E,,Public,24 hours daily; pay lot,,,,,,,,1 LP Inductive  1 Avcon Conductive,,,200-8,33.7674107,-118.1993371,2012-12-31,7174,,P,,,,,,,,,US,,,,Public,,public,,,,,,,,,,,,,,,,,,,,,,,,,,,,,
ELEC,Century City Shopping Center,10250 Santa Monica Blvd,,Los Angeles,CA,90067,,310-277-3898,E,,Public,24 hours daily,,,,,4,,,,,,200-8,34.0604643,-118.4186743,2012-12-31,7177,,P,,,,,,,,,US,,,,Public,,public,,,,,,,,,,,,,,,,,,,,,,,,,,,,,
ELEC,Hilton - Los Angeles International Airport,5711 W Century Blvd,P5,Los Angeles,CA,90045,,310-410-6036,E,,Public,24 hours daily; pay lot,,,,,,,,1 LP Inductive,,,200-8,33.946207,-118.3816,2012-12-31,7180,,P,,,,,,,,,US,,,,Public,,public,,,,,,,,,,,,,,,,,,,,,,,,,,,,,
ELEC,Los Angeles International Airport (LAX) - Lot 6,1 World Way,Central Terminal Area (CTA) - P6,Los Angeles,CA,90045,,424-646-7275,E,,Public,24 hours daily; pay lot,,,,,,15,,5 SP Inductive,,,200-8,33.9446599,-118.3982273,2013-09-25,7184,,LG,,,,,,,,,US,,,,Public,,public,,,,,,,,,,,,,,,,,,,,,,,,,,,,,
ELEC,Newport Fashion Island,550 Newport Center Dr,,Newport Beach,CA,92660,,949-640-2916,E,,Public,24 hours daily,,,,,,,,2 SP Inductive  1 Avcon Conductive,,,200-8,33.6158612,-117.8711879,2012-12-31,7190,,P,,,,,,,,,US,,,,Public,,public,,,,,,,,,,,,,,,,,,,,,,,,,,,,,
ELEC,City of Norco - Senior Citizens Center,2870 Clark Ave,,Norco,CA,92860,,951-270-5647,E,,Public,24 hours daily,,,,,,,,1 LP Inductive,,,GPS,33.923487,-117.561,2012-12-31,7191,,P,,,,,,,,,US,,,,Public,,public,,,,,,,,,,,,,,,,,,,,,,,,,,,,,
ELEC,Northridge Fashion Center,9301 Tampa Ave,,Northridge,CA,91324,,818-885-9700,E,,Public,24 hours daily,,,,,,1,,,,,200-8,34.2391367,-118.5536313,2013-12-31,7192,,P,,,,,,,,,US,,,,Public,,public,,,,,,,,,,,,,,,,,,,,,,,,,,,,,
ELEC,Ontario Airport Hilton,700 N Haven Ave,,Ontario,CA,91764,,909-980-0400,E,,Public,24 hours daily,,,,,,1,,,,,GPS,34.07122,-117.575,2013-12-31,7194,,P,,,,,,,,,US,,,,Public,,public,,,,,,,,,,,,,,,,,,,,,,,,,,,,,
ELEC,Courtyard Marriott - Oxnard Ventura,600 E Esplanade Dr,,Oxnard,CA,93030,,805-988-3600,E,,Public,24 hours daily; pay lot,,,,,,1,,1 SP Inductive,,,GPS,34.22935,-119.173,2013-12-31,7195,,P,,,,,,,,,US,,,,Public,,public,,,,,,,,,,,,,,,,,,,,,,,,,,,,,
ELEC,Hilton Palm Springs,400 E Tahquitz Canyon Way,,Palm Springs,CA,92262,,760-320-6868,E,,Public,24 hours daily; pay lot; priority given to registered guests,,,,,1,1,,,,,GPS,33.823353,-116.5436,2013-12-31,7196,,P,,,,,,,,,US,,,,Public,,public,,,,,,,,,,,,,,,,,,,,,,,,,,,,,
ELEC,East Bay Mini,4340 Rosewood Dr,,Pleasanton,CA,94588,,925-251-7070,E,,Public,Dealership business hours,,,,,,2,,,,,200-8,37.7000263,-121.8760726,2013-01-31,7197,,P,,,,,,,,,US,,,,Public,,public,,,,,,,,,,,,,,,,,,,,,,,,,,,,,
ELEC,City of Rialto - City Hall,150 S Palm Ave,,Rialto,CA,92376,,909-820-2684,E,,Public,24 hours daily,,,,,,1,,,,,GPS,34.09961,-117.372,2013-12-31,7198,,LG,,,,,,,,,US,,,,Public,,public,,,,,,,,,,,,,,,,,,,,,,,,,,,,,
ELEC,County of Riverside - Fleet Services,4066 County Circle Dr,,Riverside,CA,92501,,951-955-4650,E,,Public,24 hours daily,,,,,,,,1 LP Inductive,,,GPS,33.916194,-117.460981,2012-04-30,7204,,LG,,,,,,,,,US,,,,Public,,public,,,,,,,,,,,,,,,,,,,,,,,,,,,,,
ELEC,CNTYOFRIVERSIDE,3535 12th St,,Riverside,CA,92501,,888-758-4389,E,,Public,24 hours daily,,,,,,2,,,ChargePoint Network,http://www.chargepoint.com/,200-8,33.9773657,-117.375222,2014-01-30,7205,2014-01-30 09:25:03 UTC,,,,,,,,,,US,,,,Public,,public,,,,,,,,,,,,,,,,,,,,,,,,,,,,,
ELEC,Inland Empire Foods,5425 Wilson St,,Riverside,CA,92509,,951-682-8222,E,,Public,"24 hours M-Th, 12am-4:30pm F",,,,,,2,,,,,GPS,34.0189,-117.38,2013-12-31,7206,,P,,,,,,,,,US,,,,Public,,public,,,,,,,,,,,,,,,,,,,,,,,,,,,,,
ELEC,Sacramento International Airport - Daily A Lot,Lindbergh Dr,,Sacramento,CA,95837,,916-929-5411,E,,Public,24 hours daily; pay lot,,,,,,4,,1 SP Inductive,,,GPS,38.69005,-121.58889,2013-12-31,7212,,P,,,,,,,,,US,,,,Public,,public,,,,,,,,,,,,,,,,,,,,,,,,,,,,,
ELEC,Irvine Co. Office - Wells Fargo Plaza,401 B Street,,San Diego,CA,92101,,888-998-2546,E,,Public,MON: 24 hours | TUE: 24 hours | WED: 24 hours | THU: 24 hours | FRI: 24 hours | SAT: 24 hours | SUN: 24 hours,,,,,,1,,,Blink Network,http://www.blinkcharging.com/,GPS,32.717398,-117.160634,2014-01-30,7219,2014-01-29 08:09:16 UTC,,,,,,,,,,US,,,,Public,,public,,,,,,,,,,,,,,,,,,,,,,,,,,,,,
ELEC,Costco,450 10th St,,San Francisco,CA,94103,,415-626-4388,E,,Public,24 hours daily,,,,,,,,1 SP Inductive  1 Avcon Conductive,,,200-8,37.7707686,-122.4104182,2012-10-31,7220,,P,,,,,,,,,US,,,,Public,,public,,,,,,,,,,,,,,,,,,,,,,,,,,,,,
ELEC,City of Santa Monica - Airport,3223 Donald Douglas Loop,,Santa Monica,CA,90405,,310-458-8516,E,,Public,24 hours daily,,,,,,2,,,,,200-8,34.020478,-118.4487573,2013-08-31,7229,,LG,,,,,,,,,US,,,,Public,,public,,,,,,,,,,,,,,,,,,,,,,,,,,,,,
ELEC,City of Santa Monica Pier,200 Santa Monica Pier,,Santa Monica,CA,90405,,310-458-8516,E,,Public,24 hours daily; pay lot,,,,,1,3,,1 SP Inductive,,,200-8,33.9986803,-118.4797343,2013-08-31,7230,,LG,,,,,,,,,US,,,,Public,,public,,,,,,,,,,,,,,,,,,,,,,,,,,,,,
ELEC,Sherman Oaks Fashion Square,14006 Riverside Dr,,Sherman Oaks,CA,91423,,818-783-0550,E,,Public,24 hours daily,,,,,,,,1 SP Inductive,,,200-8,34.156143,-118.432204,2012-12-31,7233,,P,,,,,,,,,US,,,,Public,,public,,,,,,,,,,,,,,,,,,,,,,,,,,,,,
ELEC,City of Temecula - 6th Street Lot,28462 Front St,,Temecula,CA,92590,,951-694-6411,E,,Public,24 hours daily,,,,,,2,,,,,GPS,33.49605,-117.152,2013-08-25,7236,,LG,,,,,,,,,US,,,,Public,,public,,,,,,,,,,,,,,,,,,,,,,,,,,,,,
ELEC,City of Thousand Oaks - City Hall,2100 Thousand Oaks Blvd,,Thousand Oaks,CA,91362,,805-449-2100,E,,Public,24 hours daily,,,,,,3,,,,,200-8,34.1755737,-118.8479815,2013-12-31,7238,,P,,,,,,,,,US,,,,Public,,public,,,,,,,,,,,,,,,,,,,,,,,,,,,,,
ELEC,Universal City Hilton,333 Universal Terrace Pkwy,,Universal City,CA,91608,,818-506-2500,E,,Public,24 hours daily; pay lot,,,,,,,,1 LP Inductive  1 Avcon Conductive,,,200-8,34.1406014,-118.3518,2012-12-31,7242,,P,,,,,,,,,US,,,,Public,,public,,,,,,,,,,,,,,,,,,,,,,,,,,,,,
ELEC,Van Nuys Amtrak/Metrolink Station,7724 Van Nuys Blvd,,Van Nuys,CA,91405,,800-371-5465,E,,Public,24 hours daily,,,,,,2,,,,,200-8,34.2097895,-118.4486101,2012-12-31,7245,,P,,,,,,,,,US,,,,Public,,public,,,,,,,,,,,,,,,,,,,,,,,,,,,,,
ELEC,Ralph's,5601 Wilshire Blvd,,Los Angeles,CA,90036,,323-936-4954,E,,Public,24 hours daily,,,,,,,,2 LP Inductive,,,200-8,34.062928,-118.350951,2012-12-31,7249,,T,,,,,,,,,US,,,,Public,,public,,,,,,,,,,,,,,,,,,,,,,,,,,,,,
ELEC,Office Max - Home Depot,7075 Firestone Blvd,,Downey,CA,90241,,562-806-6600,E,,Public,24 hours daily,,,,,,1,,,,,200-8,33.9484681,-118.1571511,2012-12-31,7250,,T,,,,,,,,,US,,,,Public,,public,,,,,,,,,,,,,,,,,,,,,,,,,,,,,
ELEC,Scripps Memorial Hospital,354 Santa Fe Dr,,Encinitas,CA,92024,,760-633-6501,E,,Public,24 hours daily; pay lot,,,,,,1,,,,,GPS,33.03708,-117.284,2013-12-31,7262,,P,,,,,,,,,US,,,,Public,,public,,,,,,,,,,,,,,,,,,,,,,,,,,,,,
ELEC,San Diego Convention Center - Ace Parking,111 W Harbor Dr,,San Diego,CA,92101,,619-237-0399,E,,Public,24 hours daily,,,,,,2,,,,,GPS,32.70597,-117.162,2013-02-25,7264,,P,,,,,,,,,US,,,,Public,,public,,,,,,,,,,,,,,,,,,,,,,,,,,,,,
ELEC,City of Rialto - Metrolink,261 S Palm Ave,,Rialto,CA,92376,,909-820-2684,E,,Public,24 hours daily,,,,,,2,,,,,GPS,34.09774,-117.372,2013-12-31,7268,,LG,,,,,,,,,US,,,,Public,,public,,,,,,,,,,,,,,,,,,,,,,,,,,,,,
ELEC,City of Newport Beach,3300 Newport Blvd,,Newport Beach,CA,92663,,,E,,Public,24 hours daily,,,,,1,,,1 Avcon Conductive,,,200-8,33.6166966,-117.9297084,2012-12-31,7272,,T,,,,,,,,,US,,,,Public,,public,,,,,,,,,,,,,,,,,,,,,,,,,,,,,
ELEC,City of Lancaster - City Hall,44933 Fern Ave,Located in the north side parking lot under the solar sun shade parking.,Lancaster,CA,93534,,661-723-6000,E,,Public,24 hours daily,,,,,,3,,,,,200-8,34.6985964,-118.1447125,2013-04-25,7275,,T,,,,,,,,,US,,,,Public,,public,,,,,,,,,,,,,,,,,,,,,,,,,,,,,
ELEC,Lancaster Metrolink Station,44812 N Sierra Hwy,,Lancaster,CA,93534,,661-723-6000  800-371-5465,E,,Public,Lot business hours; pay lot,,,,,1,4,,,,,200-8,34.6967918,-118.1366666,2013-01-31,7276,,LG,,,,,,,,,US,,,,Public,,public,,,,,,,,,,,,,,,,,,,,,,,,,,,,,
ELEC,Hyatt at Fisherman's Wharf,555 N Point St,,San Francisco,CA,94133,,415-563-1234,E,,Public,24 hours daily; pay lot,,,,,,1,,,,,GPS,37.80619,-122.4152,2013-12-31,7280,,P,,,,,,,,,US,,,,Public,,public,,,,,,,,,,,,,,,,,,,,,,,,,,,,,
ELEC,Arden Fair Mall,1689 Arden Way,,Sacramento,CA,95815,,916-920-1167,E,,Public,24 hours daily,,,,,,3,,1 SP Inductive,,,200-8,38.6014025,-121.4277649,2013-12-31,7286,,P,,,,,,,,,US,,,,Public,,public,,,,,,,,,,,,,,,,,,,,,,,,,,,,,
ELEC,SMUD Customer Service Center - Employee Parking Lot,6300 S St,,Sacramento,CA,95817,,,E,,Private,,,,,,,10,,1 SP Inductive,,,200-8,38.5517974,-121.4306558,2012-07-31,7289,,T,,,,,,,,,US,,,,Privé,,private,,,,,,,,,,,,,,,,,,,,,,,,,,,,,
ELEC,Sky Harbor Airport Term3,3400 E. Sky Harbor Blvd,,Phoenix,AZ,85034,,888-998-2546,E,,Public,MON: 24 hours | TUE: 24 hours | WED: 24 hours | THU: 24 hours | FRI: 24 hours | SAT: 24 hours | SUN: 24 hours,,,,,,2,,,Blink Network,http://www.blinkcharging.com/,GPS,33.435463,-112.006989,2014-01-30,20834,2014-01-29 08:17:56 UTC,,,,,,,,,,US,,,,Public,,public,,,,,,,,,,,,,,,,,,,,,,,,,,,,,
ELEC,Japan Center Garage,1610 Geary Blvd,Garage Level 1,San Francisco,CA,94115,,888-758-4389,E,,Public,24 hours daily; pay lot,,,,,,,,1 SP Inductive,,,GPS,37.784912,-122.430237,2012-12-31,21351,2014-01-20 18:25:16 UTC,LG,,,,,,,,,US,,,,Public,,public,,,,,,,,,,,,,,,,,,,,,,,,,,,,,
ELEC,Moscone Center,255 3rd St,Public parking level 2,San Francisco,CA,94103,,415-777-2782,E,,Public,24 hours daily; pay lot,,,,,,2,,1 SP Inductive  1 Avcon Conductive,,,200-8,37.7843613,-122.3996365,2012-12-31,21353,2014-01-20 18:49:59 UTC,LG,,,,,,,,,US,,,,Public,,public,,,,,,,,,,,,,,,,,,,,,,,,,,,,,
ELEC,Saint Mary's Square Garage,433 Kearny St,"At Pine Street, Level 4",San Francisco,CA,94104,,415-956-8106,E,,Public,24 hours daily; pay lot,,,,,,,,1 SP Inductive,,,200-8,37.7920393,-122.4043372,2012-12-31,21354,,LG,,,,,,,,,US,,,,Public,,public,,,,,,,,,,,,,,,,,,,,,,,,,,,,,
ELEC,Sutter Stockton Garage,444 Stockton St,At Sutter Street,San Francisco,CA,94108,,888-758-4389  415-982-7275,E,,Public,Garage business hours; pay lot,,,,,,,,1 SP Inductive,,,GPS,37.78988,-122.407,2012-10-31,21355,2014-01-20 18:19:50 UTC,LG,,,,,,,,,US,,,,Public,,public,,,,,,,,,,,,,,,,,,,,,,,,,,,,,
ELEC,San Francisco General Hospital Garage,2500 24th St,At Potrero Avenue,San Francisco,CA,94110,,415-206-8770,E,,Public,24 hours daily; pay lot,,,,,,3,,,,,200-8,37.753135,-122.404374,2012-12-31,21357,,LG,,,,,,,,,US,,,,Public,,public,,,,,,,,,,,,,,,,,,,,,,,,,,,,,
ELEC,Palace Hotel,2 New Montgomery St,,San Francisco,CA,94105,,415-512-1111,E,,Public,24 hours daily,,,,,,1,,,,,GPS,37.78881,-122.401,2013-12-31,21358,,P,,,,,,,,,US,,,,Public,,public,,,,,,,,,,,,,,,,,,,,,,,,,,,,,
ELEC,Mark Hopkins InterContinental Hotel,1 Nob Hill,California at Mason,San Francisco,CA,94108,,415-392-3434,E,,Public,24 hours daily; pay lot,,,,,,1,,,,,200-8,37.791405,-122.410248,2013-12-31,21360,,P,,,,,,,,,US,,,,Public,,public,,,,,,,,,,,,,,,,,,,,,,,,,,,,,
ELEC,Kaiser Permanente - Woodland Hills,5601 De Soto Ave,,Woodland Hills,CA,91367,,818-719-2000,E,,Public,24 hours daily,,,,,,,,1 SP Inductive  1 Avcon Conductive,,,200-8,34.170993,-118.589741,2012-12-31,21364,,P,,,,,,,,,US,,,,Public,,public,,,,,,,,,,,,,,,,,,,,,,,,,,,,,
ELEC,Civic Center Garage,355 McAllister St,Chargers located on Level 1 and Level 2,San Francisco,CA,94102,,888-758-4389,E,,Public,24 hours daily; pay lot,,,,,,,,1 SP Inductive,,,GPS,37.780369,-122.417824,2012-12-31,21366,2014-01-20 18:25:15 UTC,LG,,,,,,,,,US,,,,Public,,public,,,,,,,,,,,,,,,,,,,,,,,,,,,,,
ELEC,Ellis O'Farrell Garage,123 O'Farrell St,At Powell Street,San Francisco,CA,94102,,415-986-4800,E,,Public,24 hours daily; pay lot,,,,,,,,1 SP Inductive,,,200-8,37.7865487,-122.4071729,2012-12-25,21367,,LG,,,,,,,,,US,,,,Public,,public,,,,,,,,,,,,,,,,,,,,,,,,,,,,,
ELEC,Hotel Sofitel,8555 Beverly Blvd,,Los Angeles,CA,90048,,310-278-5444,E,,Public,24 hours daily,,,,,,2,,,,,GPS,34.07631,-118.377,2013-02-25,21368,,P,,,,,,,,,US,,,,Public,,public,,,,,,,,,,,,,,,,,,,,,,,,,,,,,
ELEC,SLS Hotel - Beverly Hills,465 S La Cienega Blvd,,Los Angeles,CA,90048,,310-247-0400,E,,Public,24 hours daily,,,,,,,,1 Avcon Conductive  1 ICS-200 Conductive,,,200-8,34.0700473,-118.3767587,2012-12-31,21369,,P,,,,,,,,,US,,,,Public,,public,,,,,,,,,,,,,,,,,,,,,,,,,,,,,
ELEC,Robertson Boulevard Garage,123 S Robertson Blvd,,Los Angeles,CA,90048,,,E,,Public,24 hours daily; pay lot,,,,,,,,3 LP Inductive  3 Avcon Conductive,,,200-8,34.0739423,-118.3837657,2012-12-31,21370,,P,,,,,,,,,US,,,,Public,,public,,,,,,,,,,,,,,,,,,,,,,,,,,,,,
ELEC,Music Center Parking,135 N Grand Ave,Underground parking,Los Angeles,CA,90012,,213-972-7211,E,,Public,24 hours daily,,,,,,,,2 LP Inductive  1 Avcon Conductive,,,200-8,34.0577972,-118.2477379,2012-12-25,21374,,P,,,,,,,,,US,,,,Public,,public,,,,,,,,,,,,,,,,,,,,,,,,,,,,,
ELEC,Encino Glen Golf Course,16821 Burbank Blvd,,Encino,CA,91436,,818-789-1926,E,,Public,24 hours daily,,,,,,2,,,,,200-8,34.174104,-118.498753,2013-12-31,21383,,P,,,,,,,,,US,,,,Public,,public,,,,,,,,,,,,,,,,,,,,,,,,,,,,,
ELEC,6464 Sunset Office Building,6464 Sunset Blvd,,Hollywood,CA,90028,,888-998-2546,E,,Public - Card key at all times,24 hours daily; network card required,,,,,,2,,,,,GPS,34.097928,-118.331,2013-11-25,21388,,P,,,,,,,,,US,,,,Public - Carte-clé en tout temps,,public,KEY_ALWAYS,,,,,,,,,,,,,,,,,,,,,,,,,,,,
ELEC,Kaiser Permanente - LA Med Ctr.,4867 Sunset Blvd,,Los Angeles,CA,90017,,888-998-2546,E,,Public,MON: 24 hours | TUE: 24 hours | WED: 24 hours | THU: 24 hours | FRI: 24 hours | SAT: 24 hours | SUN: 24 hours,,,,,,2,,,Blink Network,http://www.blinkcharging.com/,GPS,34.098146,-118.295405,2014-01-30,21394,2014-01-29 08:10:52 UTC,,,,,,,,,,US,,,,Public,,public,,,,,,,,,,,,,,,,,,,,,,,,,,,,,
ELEC,Cal State Northridge - Lot G9 Structure,18111 Nordhoff St,Near Zelzah and Kenzie second level parking,Northridge,CA,91330,,818-677-1200,E,,Public,24 hours daily; parking permit required,,,,,,2,,,,,GPS,34.24876,-118.524,2013-12-31,21395,2014-01-20 18:33:34 UTC,P,,,,,,,,,US,,,,Public,,public,,,,,,,,,,,,,,,,,,,,,,,,,,,,,
ELEC,Cal State Northridge - Lot B4,18111 Nordhoff St,"Prairie Street, near Darby Avenue",Northridge,CA,91330,,818-677-1200,E,,Public,24 hours daily; parking permit required,,,,,,2,,,,,GPS,34.23933,-118.533,2013-12-31,21396,2014-01-20 18:33:34 UTC,P,,,,,,,,,US,,,,Public,,public,,,,,,,,,,,,,,,,,,,,,,,,,,,,,
ELEC,Cal State Northridge - Surface Lot B3,18111 Nordhoff St,"Off Etiwanda, South of Prairie",Northridge,CA,91330,,818-677-1200,E,,Public,24 hours daily; parking permit required,,,,,,2,,,,,GPS,34.24601,-118.524,2013-12-31,21397,2014-01-20 18:33:35 UTC,P,,,,,,,,,US,,,,Public,,public,,,,,,,,,,,,,,,,,,,,,,,,,,,,,
ELEC,Northridge Metrolink Station,8775 Wilbur Ave,,Northridge,CA,91324,,800-371-5465,E,,Public,24 hours daily,,,,,,2,,,,,200-8,34.2297918,-118.5448443,2012-12-31,21398,,P,,,,,,,,,US,,,,Public,,public,,,,,,,,,,,,,,,,,,,,,,,,,,,,,
ELEC,LA Harbor Department Headquarters,425 S Palos Verdes St,,San Pedro,CA,90731,,310-732-7678,E,,Public,24 hours daily,,,,,,4,,,,,200-8,33.7404816,-118.2816326,2013-05-31,21402,,P,,,,,,,,,US,,,,Public,,public,,,,,,,,,,,,,,,,,,,,,,,,,,,,,
ELEC,Constituent Service Center,8475 S Vermont Ave,,Los Angeles,CA,90044,,213-485-7616,E,,Public,24 hours daily,,,,,,,,1 SP Inductive,,,200-8,33.9610886,-118.2917688,2012-12-31,21405,,P,,,,,,,,,US,,,,Public,,public,,,,,,,,,,,,,,,,,,,,,,,,,,,,,
ELEC,University of Southern California - Lot 6,941 W 35th St,,Los Angeles,CA,90089,,213-740-2787,E,,Public,24 hours daily; pay lot,,,,,,2,,,,,200-8,34.0234615,-118.2878389,2013-12-31,21407,,P,,,,,,,,,US,,,,Public,,public,,,,,,,,,,,,,,,,,,,,,,,,,,,,,
ELEC,Studio City Library,12511 Moorpark St,,Los Angeles,CA,91604,,818-755-7873,E,,Public,24 hours daily,,,,,,,,1 LP Inductive,,,200-8,34.1504885,-118.4054569,2012-12-25,21413,,P,,,,,,,,,US,,,,Public,,public,,,,,,,,,,,,,,,,,,,,,,,,,,,,,
ELEC,Sylmar Metrolink Station,2100 Frank Modugno Dr,,San Fernando,CA,91342,,818-237-7641,E,,Public,24 hours daily,,,,,,2,,,,,200-8,34.2917388,-118.4482914,2012-12-31,21414,,P,,,,,,,,,US,,,,Public,,public,,,,,,,,,,,,,,,,,,,,,,,,,,,,,
ELEC,Getty Center,1200 Getty Center Dr,P2,Los Angeles,CA,90049,,310-440-7300,P,2013-05-01,PLANNED - not yet accessible (Public), pay lot,,,,,2,,,1 SP Inductive  1 LP Inductive  1 Avcon Conductive,,,200-8,34.0783652,-118.4750027,2012-12-31,21419,,P,,,,,,,,,US,,,,PRÉVU - pas encore accessible (Public),,public,,,,,,,,,,,,,,,,,,,,,,,,,,,,,
ELEC,Yosemite Field Station - El Portal Complex,5083 Foresta Rd,Highway 140 over the Foresta Bridge,El Portal,CA,95318,,209-379-1056,E,,Public - Call ahead,24 hours daily,,,,,,,,2 SP Inductive,,,200-8,37.6696692,-119.8144723,2012-12-31,21440,,SG,,,,,,,,,US,,,,Public - Appeler à l'avance,,public,CALL,,,,,,,,,,,,,,,,,,,,,,,,,,,,
ELEC,Los Angeles County Arboretum,301 N Baldwin Ave,,Arcadia,CA,91007,,626-821-3222,P,2014-06-01,PLANNED - not yet accessible (Public), 24 hours daily,,,,,,,,1 LP Inductive  1 Avcon Conductive,,,200-8,34.1448511,-118.05079,2013-12-31,21450,,P,,,,,,,,,US,,,,PRÉVU - pas encore accessible (Public),,public,,,,,,,,,,,,,,,,,,,,,,,,,,,,,
ELEC,California State - Dominguez Hills,1000 E Victoria St,Located at Physical Plant (Building #80) on south of building.,Carson,CA,90747,,310-243-3725  310-243-3696,E,,Public,24 hours daily; parking pass required - obtain at parking lot,,,,,,1,,,,,200-8,33.8672351,-118.2546498,2013-08-31,21457,2014-01-21 21:49:40 UTC,SG,,,,,,,,,US,,,,Public,,public,,,,,,,,,,,,,,,,,,,,,,,,,,,,,
ELEC,California State - Dominguez Hills,1000 E Victoria St,Located at Physical Plant (Building #80) on south of building.,Carson,CA,90747,,310-243-3725  310-243-3696,P,2013-10-31,PLANNED - not yet accessible,24 hours daily; parking pass required - obtain at parking lot,,,,,,2,,,,,200-8,33.8672351,-118.2546498,2013-08-31,21458,2014-01-21 21:49:40 UTC,SG,,,,,,,,,US,,,,PRÉVU - pas encore accessible,,,,,,,,,,,,,,,,,,,,,,,,,,,,,,,
ELEC,California State - Dominguez Hills,1000 E Victoria St,Located at Physical Plant (Building #80) on south of building.,Carson,CA,90747,,310-243-3725  310-243-3696,E,,Public,24 hours daily; parking pass required - obtain at parking lot,,,,,,2,,,,,200-8,33.8672351,-118.2546498,2013-08-31,21459,2014-01-21 21:49:40 UTC,SG,,,,,,,,,US,,,,Public,,public,,,,,,,,,,,,,,,,,,,,,,,,,,,,,
ELEC,Embassy Suites Hotel (LAX South),1440 Imperial Ave,,El Segundo,CA,90245,,888-998-2546,E,,Public,MON: 24 hours | TUE: 24 hours | WED: 24 hours | THU: 24 hours | FRI: 24 hours | SAT: 24 hours | SUN: 24 hours,,,,,,3,,,Blink Network,http://www.blinkcharging.com/,GPS,33.930574,-118.400744,2014-01-30,21497,2014-01-29 08:18:12 UTC,,,,,,,,,,US,,,,Public,,public,,,,,,,,,,,,,,,,,,,,,,,,,,,,,
ELEC,Glendora City Hall Parking Lot,114 S Vista Bonita Ave,,Glendora,CA,91741,,626-914-8200,E,,Public,24 hours daily,,,,,,2,,,,,GPS,34.13556,-117.864,2012-09-25,21498,,P,,,,,,,,,US,,,,Public,,public,,,,,,,,,,,,,,,,,,,,,,,,,,,,,
ELEC,Ralphs Store # 280 Lincoln Blvd Marina Del Rey,4311 Lincoln Blvd,,Marina Del Rey,CA,90292,,888-998-2546,E,,Public,MON: 24 hours | TUE: 24 hours | WED: 24 hours | THU: 24 hours | FRI: 24 hours | SAT: 24 hours | SUN: 24 hours,,,,,,2,,,Blink Network,http://www.blinkcharging.com/,GPS,33.984527,-118.443406,2014-01-30,21513,2014-01-29 08:18:15 UTC,,,,,,,,,,US,,,,Public,,public,,,,,,,,,,,,,,,,,,,,,,,,,,,,,
ELEC,CALTECH,370 S Holliston Ave,,Pasadena,CA,91106,,888-758-4389,E,,Public,24 hours daily,,,,,,1,,,ChargePoint Network,http://www.chargepoint.com/,GPS,34.1394768,-118.1226044,2014-01-30,21516,2014-01-29 08:12:01 UTC,,,,,,,,,,US,,,,Public,,public,,,,,,,,,,,,,,,,,,,,,,,,,,,,,
ELEC,DoubleTree Hotel - Los Angeles - Westside,6161 Centinela Ave,,Culver City,CA,90230,,310-649-1776,E,,Public,24 hours daily; guest use only,,,,,,2,,,,,GPS,33.9826,-118.3966,2013-12-31,21524,,P,,,,,,,,,US,,,,Public,,public,,,,,,,,,,,,,,,,,,,,,,,,,,,,,
ELEC,Helms Bakery Building,8800 Venice Blvd,,Los Angeles,CA,90034,,310-204-1865,E,,Public,24 hours daily,,,,,,2,,1 SP Inductive,,,200-8,34.0306792,-118.3851538,2013-12-31,21525,,P,,,,,,,,,US,,,,Public,,public,,,,,,,,,,,,,,,,,,,,,,,,,,,,,
ELEC,Costco,11000 Garden Grove Blvd,,Garden Grove,CA,92843,,714-638-6310,E,,Public,24 hours daily,,,,,,,,1 SP Inductive,,,200-8,33.773511,-117.940271,2012-10-31,21531,,P,,,,,,,,,US,,,,Public,,public,,,,,,,,,,,,,,,,,,,,,,,,,,,,,
ELEC,Westfield MainPlace Mall,2800 N Main St,,Santa Ana,CA,92705,,714-547-7800,E,,Public,24 hours daily,,,,,,1,,1 SP Inductive,,,GPS,33.77699,-117.871,2013-12-31,21535,,P,,,,,,,,,US,,,,Public,,public,,,,,,,,,,,,,,,,,,,,,,,,,,,,,
ELEC,Santa Ana Regional Transportation Center,1000 E Santa Ana Blvd,,Santa Ana,CA,92701,,714-565-2690,P,2012-08-15,PLANNED - not yet accessible,24 hours daily,,,,,,,,2 LP Inductive,,,200-8,33.7526761,-117.8568859,2011-12-31,21536,,P,,,,,,,,,US,,,,PRÉVU - pas encore accessible,,,,,,,,,,,,,,,,,,,,,,,,,,,,,,,
ELEC,San Bernardino City Hall,300 N D St,,San Bernardino,CA,92401,,909-384-5211,E,,Public,24 hours daily,,,,,,4,,,,,GPS,34.10459,-117.291,2013-12-31,21545,,P,,,,,,,,,US,,,,Public,,public,,,,,,,,,,,,,,,,,,,,,,,,,,,,,
ELEC,CITY OF SB EV2,1115 Anacapa St,,Santa Barbara,CA,93101,,888-758-4389,E,,Public,24 hours daily,,,,,2,2,,,ChargePoint Network,http://www.chargepoint.com/,200-8,34.4236478,-119.7022711,2014-01-30,21557,2014-01-30 08:29:51 UTC,,,,,,,,,,US,,,,Public,,public,,,,,,,,,,,,,,,,,,,,,,,,,,,,,
ELEC,California State University Channel Islands,1 University Dr,,Camarillo,CA,93012,,805-437-8400,E,,Public,24 hours daily,,,,,,4,,,,,200-8,34.165363,-119.0451473,2013-12-31,21559,2014-01-20 18:06:41 UTC,P,,,,,,,,,US,,,,Public,,public,,,,,,,,,,,,,,,,,,,,,,,,,,,,,
ELEC,Camarillo Premium Outlet,740 E Ventura Blvd,,Camarillo,CA,93010,,805-445-8520,E,,Public,24 hours daily,,,,,,,,2 SP Inductive  1 Avcon Conductive,,,200-8,34.217863,-119.0601797,2012-12-31,21560,,P,,,,,,,,,US,,,,Public,,public,,,,,,,,,,,,,,,,,,,,,,,,,,,,,
ELEC,Brea Downtown Parking - ClipperCreek,101 S Brea Blvd,,Brea,CA,92821,,714-990-7650,E,,Public,Garage business hours; 12 hour parking limit; pay lot,,,,,,1,,1 SP Inductive,,,200-8,33.9192454,-117.899168,2013-08-25,21561,,LG,,,,,,,,,US,,,,Public,,public,,,,,,,,,,,,,,,,,,,,,,,,,,,,,
ELEC,Home Depot,2745 Teller Rd,In front of garden center,Newbury Park,CA,91320,,805-375-6680,E,,Public,24 hours daily,,,,,4,2,,2 LP Inductive,,,200-8,34.192692,-118.934553,2012-09-25,21565,,P,,,,,,,,,US,,,,Public,,public,,,,,,,,,,,,,,,,,,,,,,,,,,,,,
ELEC,Lake Casitas Municipal Water District - Recreational Area,Casitas Pass Rd & Baldwin Rd,Baldwin Road/Casitas Pass Road,Oak View,CA,93022,,805-649-2233,E,,Public,24 hours daily,,,,,3,1,,,,,GPS,34.418322,-119.3368,2013-12-31,21566,,P,,,,,,,,,US,,,,Public,,public,,,,,,,,,,,,,,,,,,,,,,,,,,,,,
ELEC,Ojai City Hall,401 S Ventura Blvd,,Ojai,CA,93023,,805-646-5581,E,,Public,24 hours daily,,,,,,2,,,,,GPS,34.4447896,-119.2467592,2013-12-31,21567,,LG,,,,,,,,,US,,,,Public,,public,,,,,,,,,,,,,,,,,,,,,,,,,,,,,
ELEC,San Dimas Park & Ride,205 S San Dimas Ave,,San Dimas,CA,91773,,909-394-6200,E,,Public,24 hours daily,,,,,,2,,,,,200-8,34.105203,-117.807471,2013-03-25,21569,,P,,,,,,,,,US,,,,Public,,public,,,,,,,,,,,,,,,,,,,,,,,,,,,,,
ELEC,Loews Santa Monica Beach Hotel,1700 Ocean Ave,,Santa Monica,CA,90401,,310-458-6700,E,,Public,24 hours daily; pay lot,,,,,,2,,,,,GPS,34.00907,-118.4928,2013-12-31,21575,,P,,,,,,,,,US,,,,Public,,public,,,,,,,,,,,,,,,,,,,,,,,,,,,,,
ELEC,Costco,2200 E Willow St,,Signal Hill,CA,90806,,562-424-1722,E,,Public,24 hours daily,,,,,,,,1 SP Inductive  1 Avcon Conductive,,,200-8,33.8043177,-118.1668,2012-10-31,21576,,P,,,,,,,,,US,,,,Public,,public,,,,,,,,,,,,,,,,,,,,,,,,,,,,,
ELEC,COSTCO,2751 Skypark Dr,,Torrance,CA,90505,,888-758-4389,E,,Public,24 hours daily,,,,,,2,,,ChargePoint Network,http://www.chargepoint.com/,200-8,33.805145,-118.334384,2014-01-30,21579,2014-01-30 09:26:37 UTC,,,,,,,,,,US,,,,Public,,public,,,,,,,,,,,,,,,,,,,,,,,,,,,,,
ELEC,Westfield Mall - West Covina,1200 W Covina Pkwy,,West Covina,CA,91790,,626-960-1881  626-939-8458,E,,Public,24 hours daily,,,,,,1,,1 SP Inductive,,,200-8,34.0686969,-117.934368,2013-12-31,21586,,LG,,,,,,,,,US,,,,Public,,public,,,,,,,,,,,,,,,,,,,,,,,,,,,,,
ELEC,West Covina Civic Center Parking Structure - Level 3,1444 W Garvey Ave S,,West Covina,CA,91790,,626-939-8458,E,,Public,Garage business hours; pay lot,,,,,,2,,,,,200-8,34.0715522,-117.9387946,2013-12-31,21587,,LG,,,,,,,,,US,,,,Public,,public,,,,,,,,,,,,,,,,,,,,,,,,,,,,,
ELEC,CITY OF ANAHEIM,800 W. Katella Ave.,,Anaheim,CA,92802,,888-758-4389,E,,Public,24 hours daily,,,,,,2,,,ChargePoint Network,http://www.chargepoint.com/,200-8,33.8023925,-117.9197896,2014-01-30,21592,2014-01-30 09:21:27 UTC,,,,,,,,,,US,,,,Public,,public,,,,,,,,,,,,,,,,,,,,,,,,,,,,,
ELEC,City of Pasadena - El Molino Lot,100 N El Molino Ave,,Pasadena,CA,91101,,626-744-7665,E,,Public,24 hours daily; pay lot,,,,,,1,,,,,200-8,34.1474556,-118.1368866,2013-12-31,21594,,LG,,,,,,,,,US,,,,Public,,public,,,,,,,,,,,,,,,,,,,,,,,,,,,,,
ELEC,Southern California Edison - Rosemead Service Center,2131 Walnut Grove Ave,,Rosemead,CA,91770,,,E,,Private,,,,,,2,2,,,,,GPS,34.05334473,-118.0841599,2013-12-31,21597,2014-01-20 18:05:47 UTC,T,,,,,,,,,US,,,,Privé,,private,,,,,,,,,,,,,,,,,,,,,,,,,,,,,
ELEC,CITY OF ANAHEIM,2695 E Katella Ave,,Anaheim,CA,92806,,888-758-4389,E,,Public,24 hours daily,,,,,,2,,,ChargePoint Network,http://www.chargepoint.com/,200-9,33.8079071,-117.8767457,2014-01-30,21599,2014-01-30 09:21:30 UTC,,,,,,,,,,US,,,,Public,,public,,,,,,,,,,,,,,,,,,,,,,,,,,,,,
ELEC,Disneyland Hotel,1150 W Cerritos Ave,Located in the lower level valet lot,Anaheim,CA,92802,,714-778-6600,E,,Public,24 hours daily; pay lot,,,,,10,,,,,,200-8,33.8105885,-117.9285115,2012-12-25,21601,,P,,,,,,,,,US,,,,Public,,public,,,,,,,,,,,,,,,,,,,,,,,,,,,,,
ELEC,Angel Stadium / Metro Link Station,2150 Katella Ave,,Anaheim,CA,92806,,888-998-2546,E,,Public,MON: 24 hours | TUE: 24 hours | WED: 24 hours | THU: 24 hours | FRI: 24 hours | SAT: 24 hours | SUN: 24 hours,,,,,,1,,,Blink Network,http://www.blinkcharging.com/,GPS,33.803393,-117.881628,2014-01-30,21602,2014-01-29 08:19:14 UTC,,,,,,,,,,US,,,,Public,,public,,,,,,,,,,,,,,,,,,,,,,,,,,,,,
ELEC,Florida Solar Energy Center,1679 Clearlake Rd,Clearlake Road and North Entrance to Brevard Community College,Cocoa,FL,32922,,,E,,Private,,,,,,,1,,,,,200-8,28.3864517,-80.7551738,2012-09-30,21604,2014-01-20 18:37:41 UTC,SG,,,,,,,,,US,,,,Privé,,private,,,,,,,,,,,,,,,,,,,,,,,,,,,,,
ELEC,Ventura County Center,800 S Victoria Ave,,Ventura,CA,93009,,805-477-1917,E,,Public,24 hours daily,,,,,,1,,,,,GPS,34.267352,-119.2124,2013-12-31,21606,,LG,,,,,,,,,US,,,,Public,,public,,,,,,,,,,,,,,,,,,,,,,,,,,,,,
ELEC,Ventura County Air Pollution Control District,669 County Square Dr,,Ventura,CA,93003,,805-645-1400,E,,Public,24 hours daily,,,,,,3,,,,,GPS,34.268756,-119.2154,2013-12-31,21607,,LG,,,,,,,,,US,,,,Public,,public,,,,,,,,,,,,,,,,,,,,,,,,,,,,,
ELEC,Pacific View Mall,3295 E Main St,,Ventura,CA,93003,,805-642-5530,E,,Public,24 hours daily,,,,,,2,,1 Avcon Conductive,,,GPS,34.268,-119.2492,2013-12-31,21608,,P,,,,,,,,,US,,,,Public,,public,,,,,,,,,,,,,,,,,,,,,,,,,,,,,
ELEC,LADWP - Scattergood Generating Facility,12700 Vista del Mar,,Playa del Rey,CA,90293,,,E,,Private - Government only,,,,,,,,,7 Conductive 240V,,,200-8,33.918907,-118.424235,2012-12-31,21609,,LG,,,,,,,,,US,,,,Privé - Réservé au gouvernement,,private,GOVERNMENT,,,,,,,,,,,,,,,,,,,,,,,,,,,,
ELEC,Los Angeles Department of Public Works - Baldwin Park Construction Permit Office,14747 E Ramona Blvd,,Baldwin Park,CA,91706,,,E,,Private - Government only,,,,,,,,,2 Conductive 240V,,,200-8,34.088742,-117.953969,2013-12-31,21612,,LG,,,,,,,,,US,,,,Privé - Réservé au gouvernement,,private,GOVERNMENT,,,,,,,,,,,,,,,,,,,,,,,,,,,,
ELEC,Los Angeles Department of Public Works - Hollydale Construction Permit Office,11282 S Garfield Ave,,Downey,CA,90242,,,E,,Private - Government only,,,,,,,,,2 Conductive 240V,,,200-8,33.923723,-118.167863,2013-12-31,21615,,LG,,,,,,,,,US,,,,Privé - Réservé au gouvernement,,private,GOVERNMENT,,,,,,,,,,,,,,,,,,,,,,,,,,,,
ELEC,Los Angeles Department of Public Works - Longden Flood Maintenance Yard,160 E Longden Ave,,Irwindale,CA,91706,,,E,,Private - Government only,,,,,,,,,2 SP Inductive,,,200-8,34.112343,-118.003139,2013-12-31,21616,,LG,,,,,,,,,US,,,,Privé - Réservé au gouvernement,,private,GOVERNMENT,,,,,,,,,,,,,,,,,,,,,,,,,,,,
ELEC,Los Angeles Department of Public Works - Imperial Maintenance Yard,5525 Imperial Hwy,,South Gate,CA,90280,,,E,,Private - Government only,,,,,,,,,2 Conductive 240V,,,200-8,33.9305555,-118.1748422,2013-12-31,21618,,LG,,,,,,,,,US,,,,Privé - Réservé au gouvernement,,private,GOVERNMENT,,,,,,,,,,,,,,,,,,,,,,,,,,,,
ELEC,City of Thousand Oaks - Transportation Center ,265 S Rancho Rd,,Thousand Oaks,CA,91361,,805-449-2100,E,,Public,24 hours daily,,,,,,1,,,,,200-8,34.1750218,-118.8610077,2013-07-31,21639,2014-01-20 18:06:33 UTC,P,,,,,,,,,US,,,,Public,,public,,,,,,,,,,,,,,,,,,,,,,,,,,,,,
ELEC,Janss Marketplace,275 N. Moorpark Rd.,,Thousand Oaks,CA,91360,,888-998-2546,E,,Public,MON: 24 hours | TUE: 24 hours | WED: 24 hours | THU: 24 hours | FRI: 24 hours | SAT: 24 hours | SUN: 24 hours,,,,,,2,,,Blink Network,http://www.blinkcharging.com/,GPS,34.184008,-118.877536,2014-01-30,21640,2014-01-29 08:12:21 UTC,,,,,,,,,,US,,,,Public,,public,,,,,,,,,,,,,,,,,,,,,,,,,,,,,
ELEC,Municipal Service Center,1993 Rancho Conejo Blvd,,Thousand Oaks,CA,91320,,805-449-2100,E,,Public,24 hours daily,,,,,,1,,,,,200-8,34.20829,-118.941,2012-06-25,21641,,P,,,,,,,,,US,,,,Public,,public,,,,,,,,,,,,,,,,,,,,,,,,,,,,,
ELEC,UC Davis Extension,1441 Research Park Dr,,Davis,CA,95616,,530-752-8277,E,,Public,24 hours daily,,,,,,2,,1 SP Inductive,,,200-8,38.5389395,-121.7320766,2013-12-31,21673,,SG,,,,,,,,,US,,,,Public,,public,,,,,,,,,,,,,,,,,,,,,,,,,,,,,
ELEC,Kaiser Office Building,1650 Response Rd,,Sacramento,CA,95815,,888-381-0627,E,,Public,24 hours daily,,,,,,,,1 SP Inductive  8 Conductive 120V/240V NEMA 14-50,,,200-8,38.596304,-121.429696,2012-12-31,21675,,P,,,,,,,,,US,,,,Public,,public,,,,,,,,,,,,,,,,,,,,,,,,,,,,,
ELEC,First Bank of San Luis Obispo,995 Higuera St,,San Luis Obispo,CA,93401,,805-541-6100,E,,Public,24 hours daily,,,,,,1,,1 LP Inductive  1 Avcon Conductive 520C,,,200-8,35.280697,-120.660696,2012-12-31,21712,,P,,,,,,,,,US,,,,Public,,public,,,,,,,,,,,,,,,,,,,,,,,,,,,,,
ELEC,San Luis Obispo County Air Pollution Control District,3433 Roberto Ct,,San Luis Obispo,CA,93401,,805-781-5912,E,,Public,8am-5pm M-F; see front desk for code,,,,,1,1,,,,,GPS,35.25939,-120.64492,2013-07-25,21713,,LG,,,,,,,,,US,,,,Public,,public,,,,,,,,,,,,,,,,,,,,,,,,,,,,,
ELEC,US Environmental Protection Agency - New England Regional Laboratory,11 Technology Dr,,Chelmsford,MA,01824,,,E,,Private - Government only,,Cash,,,,1,,,1 Conductive 120V/240V NEMA 14-50  1 Conductive 240V NEMA 10-50  1 Conductive 240V NEMA 6-20,,,GPS,42.62731,-71.3681,2013-12-31,21777,,FG,20,U.S. Environmental Protection Agency,,,,,,,US,,,,Privé - Réservé au gouvernement,,private,GOVERNMENT,EPA,,,,,,,,,,,,,,,,,,,,,,,,,,,
ELEC,Clean Fuel Connection Inc,11800 Clarke St,,Arcadia,CA,91006,,888-890-4638,E,,Private,Public charging available in emergency situations; call ahead for arrangements,,,,,,1,,1 SP Inductive,,,200-8,34.100913,-118.004762,2013-12-31,21791,,P,,,,,,,,,US,,,,Privé,,private,,,,,,,,,,,,,,,,,,,,,,,,,,,,,
ELEC,Baldwin Park Metrolink - Lot 2,3825 Downing Ave,,Baldwin Park,CA,91706,,800-371-5465,E,,Public,24 hours daily,,,,,,,,1 SP Inductive  1 Avcon Conductive,,,200-8,34.0848329,-117.9586829,2012-12-31,21792,,LG,,,,,,,,,US,,,,Public,,public,,,,,,,,,,,,,,,,,,,,,,,,,,,,,
ELEC,Soquel & Front Garage,601 Front St,,Santa Cruz,CA,95061,,831-420-5184,E,,Public,24 hours daily,,,,,3,3,,2 SP Inductive,,,200-8,36.9732361,-122.0245482,2013-12-31,21794,,P,,,,,,,,,US,,,,Public,,public,,,,,,,,,,,,,,,,,,,,,,,,,,,,,
ELEC,LADWP - Wilmington District Yard,315 N Island Ave,,Wilmington,CA,90744,,,E,,Private - Government only,,,,,,,,,1 Conductive 240V,,,200-8,33.7729784,-118.2658228,2012-12-31,25171,,LG,,,,,,,,,US,,,,Privé - Réservé au gouvernement,,private,GOVERNMENT,,,,,,,,,,,,,,,,,,,,,,,,,,,,
ELEC,Fair Oaks - Orangevale - Community Library,11601 Fair Oaks Blvd,,Fair Oaks,CA,95628,,916-264-2700,E,,Public,24 hours daily,,,,,,2,,,,,GPS,38.66292,-121.2634,2012-09-30,25491,,LG,,,,,,,,,US,,,,Public,,public,,,,,,,,,,,,,,,,,,,,,,,,,,,,,
ELEC,DGS 14 4HR MAX,1517 13th St,,Sacramento,CA,95814,,888-758-4389,E,,Public,24 hours daily,,,,,,8,,,ChargePoint Network,http://www.chargepoint.com/,200-8,38.572937,-121.491606,2014-01-30,25492,2014-01-30 09:20:49 UTC,,,,,,,,,,US,,,,Public,,public,,,,,,,,,,,,,,,,,,,,,,,,,,,,,
ELEC,City of Sacramento - City Hall Public Parking Garage,10th St & I St,"Lot I, Level 8, Waterfall Building.",Sacramento,CA,95814,,916-264-5011,E,,Public,24 hours daily; pay lot,,,,,,6,,1 SP Inductive,,,GPS,38.58098,-121.493,2013-12-31,25493,2014-01-20 18:08:20 UTC,LG,,,,,,,,,US,,,,Public,,public,,,,,,,,,,,,,,,,,,,,,,,,,,,,,
ELEC,Sutter Galleria Mall - University of California - Davis Extension,2901 K St,,Sacramento,CA,95816,,916-327-7072.,E,,Public,24 hours daily; pay lot,,,,,1,1,,,,,200-8,38.5729034,-121.4674155,2013-12-31,25494,,P,,,,,,,,,US,,,,Public,,public,,,,,,,,,,,,,,,,,,,,,,,,,,,,,
ELEC,North Highlands Library,4235 Antelope Rd,,Antelope,CA,95843,,916-264-2700,E,,Public,24 hours daily,,,,,,1,,,,,GPS,38.7042,-121.365,2012-10-25,25497,,LG,,,,,,,,,US,,,,Public,,public,,,,,,,,,,,,,,,,,,,,,,,,,,,,,
ELEC,ESQUIRE PLAZA,1215 K St,,Sacramento,CA,95814,,888-758-4389,E,,Public,24 hours daily,,,,,,2,,,ChargePoint Network,http://www.chargepoint.com/,200-8,38.578475,-121.489886,2014-01-30,25499,2014-01-30 09:16:34 UTC,,,,,,,,,,US,,,,Public,,public,,,,,,,,,,,,,,,,,,,,,,,,,,,,,
ELEC,Gateway Oaks Metro Center,2710 Gateway Oaks Dr,,Sacramento,CA,95833,,916-921-5005,E,,Public,24 hours daily,,,,,,1,,,,,200-8,38.6160825,-121.5167284,2013-12-31,25500,,P,,,,,,,,,US,,,,Public,,public,,,,,,,,,,,,,,,,,,,,,,,,,,,,,
ELEC,University of California - Davis - Medical Center,4860 Y St,"Located in Parking Structure 2, at 49th St",Sacramento,CA,95817,,800-282-3284,E,,Public,24 hours daily,,,,,,2,,,,,GPS,38.552483,-121.4487,2013-11-30,25501,,P,,,,,,,,,US,,,,Public,,public,,,,,,,,,,,,,,,,,,,,,,,,,,,,,
ELEC,Belle Cooledge Library,5600 S Land Park Dr,,Sacramento,CA,95822,,916-264-2700,E,,Public,24 hours daily,,,,,,1,,,,,GPS,38.524403,-121.5112,2013-05-31,25502,,LG,,,,,,,,,US,,,,Public,,public,,,,,,,,,,,,,,,,,,,,,,,,,,,,,
ELEC,Mosquito Road Park and Ride,Mosquito Rd & Clay St,,Placerville,CA,95667,,530-642-5383,E,,Public,Lot business hours; overnight parking prohibited,,,,,,2,,1 Avcon Conductive,,,GPS,38.73323,-120.78962,2013-12-31,25507,,P,,,,,,,,,US,,,,Public,,public,,,,,,,,,,,,,,,,,,,,,,,,,,,,,
ELEC,Vacaville Cultural Center,1000 Ulatis Dr,,Vacaville,CA,95687,,707-449-5424,E,,Public,24 hours daily,,,,,,1,,1 SP Inductive,,,GPS,38.356027,-121.9628,2013-08-25,25511,,LG,,,,,,,,,US,,,,Public,,public,,,,,,,,,,,,,,,,,,,,,,,,,,,,,
ELEC,Stars Recreation Center,155 Browns Valley Pkwy,,Vacaville,CA,95688,,707-449-5424,E,,Public,24 hours daily,,,,,,3,,1 SP Inductive,,,GPS,38.36557,-121.967,2013-08-25,25514,,LG,,,,,,,,,US,,,,Public,,public,,,,,,,,,,,,,,,,,,,,,,,,,,,,,
ELEC,Vacaville Regional Transport Center - Tesla,190 Hickory Ln,,Vacaville,CA,95688,,707-449-5424,E,,Public,24 hours daily,,,,,,1,,,,,GPS,38.35172,-121.987,2013-08-25,25515,,LG,,,,,,,,,US,,,,Public,,public,,,,,,,,,,,,,,,,,,,,,,,,,,,,,
ELEC,Office of Housing & Redevelopment,40 Eldridge Ave,At Morales Ct,Vacaville,CA,95688,,707-449-5424,E,,Public,24 hours daily,,,,,,1,,1 SP Inductive,,,200-8,38.35697,-122.002,2013-02-25,25516,,LG,,,,,,,,,US,,,,Public,,public,,,,,,,,,,,,,,,,,,,,,,,,,,,,,
ELEC,KUIC Parking Lot - Lot 9,500 Catherine St,At Davis St,Vacaville,CA,95688,,707-449-5424,E,,Public,24 hours daily,,,,,,1,,1 SP Inductive,,,GPS,38.355867,-121.9862,2013-08-25,25517,,LG,,,,,,,,,US,,,,Public,,public,,,,,,,,,,,,,,,,,,,,,,,,,,,,,
ELEC,Vacaville City Hall,650 Merchant St,,Vacaville,CA,95688,,,E,,Private - Government only,,,,,,,3,,3 SP Inductive,,,200-8,38.35147,-121.995,2013-02-25,25518,,LG,,,,,,,,,US,,,,Privé - Réservé au gouvernement,,private,GOVERNMENT,,,,,,,,,,,,,,,,,,,,,,,,,,,,
ELEC,Citrus Heights City Hall,6237 Fountain Square Dr,,Citrus Heights,CA,95621,,916-725-2448,E,,Public,24 hours daily,,,,,,3,,1 SP Inductive,,,GPS,38.67995,-121.2989,2013-12-31,25519,,LG,,,,,,,,,US,,,,Public,,public,,,,,,,,,,,,,,,,,,,,,,,,,,,,,
ELEC,Pitt School Plaza,1440 Ary Ln,,Dixon,CA,95620,,707-449-5424,E,,Public,24 hours daily,,,,,1,,,1 SP Inductive  1 Tesla Conductive,,,200-8,38.45754,-121.842552,2013-08-25,25520,,LG,,,,,,,,,US,,,,Public,,public,,,,,,,,,,,,,,,,,,,,,,,,,,,,,
ELEC,El Dorado County Government Center,2850 Fairlane Ct,Building C parking lot,Placerville,CA,95667,,530-621-5300,E,,Public,24 hours daily,,,,,,1,,1 SP Inductive,,,GPS,38.72799,-120.828,2013-12-31,25522,,P,,,,,,,,,US,,,,Public,,public,,,,,,,,,,,,,,,,,,,,,,,,,,,,,
ELEC,El Dorado Transit Park & Ride,4640 Post St,,El Dorado Hills,CA,95762,,530-642-5383,E,,Public,24 hours daily,,,,,,1,,1 SP Inductive,,,GPS,38.6476,-121.067,2013-12-31,25523,,P,,,,,,,,,US,,,,Public,,public,,,,,,,,,,,,,,,,,,,,,,,,,,,,,
ELEC,Lowe's of Elk Grove,8369 Power Inn Rd,,Elk Grove,CA,95624,,916-688-1922,E,,Public,24 hours daily,,,,,,1,,1 SP Inductive,,,200-8,38.453835,-121.4038254,2013-12-31,25524,,P,,,,,,,,,US,,,,Public,,public,,,,,,,,,,,,,,,,,,,,,,,,,,,,,
ELEC,Elk Grove Kia,8480 Laguna Grove Dr,,Elk Grove,CA,95758,,916-753-1000,E,,Public,Dealership business hours,,,,,,1,,,,,GPS,38.40553,-121.391,2013-12-31,25525,,P,,,,,,,,,US,,,,Public,,public,,,,,,,,,,,,,,,,,,,,,,,,,,,,,
ELEC,Granite Bay Business Park,4180 Douglas Blvd,,Granite Bay,CA,95746,,,E,,Public,24 hours daily,,,,,,,,1 SP Inductive  1 Avcon Conductive,,,200-8,38.740595,-121.223488,2012-12-31,25526,,P,,,,,,,,,US,,,,Public,,public,,,,,,,,,,,,,,,,,,,,,,,,,,,,,
ELEC,CVS Pharmacy,8455 Auburn-Folsom Rd,At Douglas Blvd,Granite Bay,CA,95746,,916-791-1189,E,,Public,24 hours daily,,,,,,1,,,,,GPS,38.74453,-121.17,2013-12-31,25527,,P,,,,,,,,,US,,,,Public,,public,,,,,,,,,,,,,,,,,,,,,,,,,,,,,
ELEC,Carmichael Library,5605 Marconi Ave,At La Vista,Carmichael,CA,95608,,916-264-2700  916-264-2920,E,,Public,24 hours daily,,,,,,1,,1 SP Inductive,,,GPS,38.617933,-121.3339,2013-12-31,25610,,P,,,,,,,,,US,,,,Public,,public,,,,,,,,,,,,,,,,,,,,,,,,,,,,,
ELEC,Halawa C & C Baseyard,811 Umi St,,Honolulu,HI,96819,,,P,2013-07-15,PLANNED - not yet accessible (Private - Government only),,,,,,1,1,,,,,200-8,21.3346181,-157.8812015,2013-04-30,27035,,LG,,,,,,,,,US,,,,PRÉVU - pas encore accessible (Privé - Réservé au gouvernement),,private,GOVERNMENT,,,,,,,,,,,,,,,,,,,,,,,,,,,,
ELEC,Burlington International Airport,1200 Airport Dr,1st Floor Parking Garage,South Burlington,VT,05403,,802-863-2874,E,,Public,24 hours daily; pay lot,,,,,,,,2 Avcon Conductive,,,GPS,44.469281,-73.154972,2013-03-31,27036,2014-01-20 18:09:36 UTC,LG,,,,,,,,,US,,,,Public,,public,,,,,,,,,,,,,,,,,,,,,,,,,,,,,
ELEC,Rio Vista City Hall,1 Main St,,Rio Vista,CA,94571,,707-449-5424,E,,Public,24 hours daily,,,,,1,1,,1 SP Inductive,,,GPS,38.15485,-121.69,2013-12-31,27302,,LG,,,,,,,,,US,,,,Public,,public,,,,,,,,,,,,,,,,,,,,,,,,,,,,,
ELEC,Southern California Edison - Energy Education Center - Tulare,4175 S Laspina St,,Tulare,CA,93274,,800-772-4822,E,,Public,8am-5pm M-F,,,,,2,3,,,,,GPS,36.167417,-119.327744,2013-12-31,27303,2014-01-20 18:05:34 UTC,T,,,,,,,,,US,,,,Public,,public,,,,,,,,,,,,,,,,,,,,,,,,,,,,,
ELEC,Southern California Edison - Antelope Valley Service Center,42060 10th St W,,Lancaster,CA,93539,,,E,,Private,,,,,,,,,2 SP Inductive,,,200-8,34.6466339,-118.1476554,2012-07-31,27304,,T,,,,,,,,,US,,,,Privé,,private,,,,,,,,,,,,,,,,,,,,,,,,,,,,,
ELEC,Southern California Edison - Catalina Service Center,1 Pebbly Beach Rd,,Avalon,CA,90704,,,E,,Private,,,,,,,,,2 SP Inductive,,,200-8,33.3348396,-118.3117957,2012-07-31,27306,,T,,,,,,,,,US,,,,Privé,,private,,,,,,,,,,,,,,,,,,,,,,,,,,,,,
ELEC,Southern California Edison - Central Orange County,1241 S Grande Ave,,Santa Ana,CA,92705,,,E,,Private,,,,,,,2,,23 SP Inductive,,,200-8,33.7327386,-117.8504117,2012-07-31,27307,,T,,,,,,,,,US,,,,Privé,,private,,,,,,,,,,,,,,,,,,,,,,,,,,,,,
ELEC,Southern California Edison - Dominguez Hills Service Station,1924 Cashdan St,,Compton,CA,90224,,,E,,Private,,,,,,,3,,1 LP Inductive  14 SP Inductive,,,200-8,33.855141,-118.234048,2012-07-31,27308,,T,,,,,,,,,US,,,,Privé,,private,,,,,,,,,,,,,,,,,,,,,,,,,,,,,
ELEC,Southern California Edison - Long Beach Service Center,2800 E Willow St,,Long Beach,CA,90806,,,E,,Private,,,,,,,4,,8 LP Inductive  19 SP Inductive,,,200-8,33.8035349,-118.157638,2012-07-31,27310,,T,,,,,,,,,US,,,,Privé,,private,,,,,,,,,,,,,,,,,,,,,,,,,,,,,
ELEC,Southern California Edison - Monrovia Service Center,1440 S California Ave,,Monrovia,CA,91016,,,E,,Private,,,,,,,,,4 SP Inductive,,,200-8,34.136276,-117.993909,2012-07-31,27311,,T,,,,,,,,,US,,,,Privé,,private,,,,,,,,,,,,,,,,,,,,,,,,,,,,,
ELEC,Southern California Edison - Montebello Service Station,1000 Potrero Grande,,Monterey Park,CA,91754,,,E,,Private,,,,,,,1,,1 LP Inductive  4 SP Inductive,,,200-8,34.0448498,-118.1001162,2012-07-31,27312,,T,,,,,,,,,US,,,,Privé,,private,,,,,,,,,,,,,,,,,,,,,,,,,,,,,
ELEC,Southern California Edison - North Orange County,1851 W Valencia Dr,,Fullerton,CA,92633,,,E,,Private,,,,,,,2,,11 SP Inductive,,,200-8,33.8665381,-117.9608866,2012-07-31,27313,,T,,,,,,,,,US,,,,Privé,,private,,,,,,,,,,,,,,,,,,,,,,,,,,,,,
ELEC,Southern California Edison - Ontario Service Center,1351 E Francis St,,Ontario,CA,91761,,,E,,Private,,,,,,,,,2 LP Inductive  12 SP Inductive,,,200-8,34.042657,-117.625018,2012-07-31,27314,,T,,,,,,,,,US,,,,Privé,,private,,,,,,,,,,,,,,,,,,,,,,,,,,,,,
ELEC,Southern California Edison - Orange Coast Service Center,7333 Bolsa Ave,,Westminster,CA,92683,,,E,,Private,,,,,,,2,,1 LP Inductive  11 SP Inductive,,,200-8,33.7446997,-118.0007638,2012-07-31,27315,,T,,,,,,,,,US,,,,Privé,,private,,,,,,,,,,,,,,,,,,,,,,,,,,,,,
ELEC,Southern California Edison - Palm Springs Service Center,36100 Cathedral Canyon Dr,,Cathedral City,CA,92234,,,E,,Private,,,,,,,,,3 SP Inductive,,,200-8,33.785424,-116.465959,2012-07-31,27316,,T,,,,,,,,,US,,,,Privé,,private,,,,,,,,,,,,,,,,,,,,,,,,,,,,,
ELEC,Southern California Edison - Saddleback Service Center,14155 Bake Pkwy,,Irvine,CA,92718,,,E,,Private,,,,,,,,,1 LP Inductive  15 SP Inductive,,,200-8,33.6537158,-117.7044015,2012-07-31,27317,,T,,,,,,,,,US,,,,Privé,,private,,,,,,,,,,,,,,,,,,,,,,,,,,,,,
ELEC,Southern California Edison - San Joaquin Service Center,2425 S Blackstone St,,Tulare,CA,93274,,,E,,Private,,,,,,,,,1 SP Inductive,,,GPS,36.184617,-119.3311505,2013-12-31,27318,,T,,,,,,,,,US,,,,Privé,,private,,,,,,,,,,,,,,,,,,,,,,,,,,,,,
ELEC,Southern California Edison - Santa Barbara Service Center,333 David Love Pl,,Goleta,CA,93117,,,E,,Private,,,,,,,,,2 LP Inductive  2 SP Inductive,,,200-8,34.4340021,-119.8388626,2012-07-31,27319,,T,,,,,,,,,US,,,,Privé,,private,,,,,,,,,,,,,,,,,,,,,,,,,,,,,
ELEC,Southern California Edison - Santa Monica Service Center,1721 22nd St,,Santa Monica,CA,90404,,,E,,Private,,,,,,,2,,1 LP Inductive  11 SP Inductive,,,200-8,34.025555,-118.4728222,2012-07-31,27320,,T,,,,,,,,,US,,,,Privé,,private,,,,,,,,,,,,,,,,,,,,,,,,,,,,,
ELEC,Southern California Edison - Shaver Lake Service Center,42696 Tollhouse Rd,,Shaver Lake,CA,93664,,,E,,Private,,,,,,,,,1 SP Inductive,,,200-8,37.1226609,-119.3147417,2012-07-31,27321,,T,,,,,,,,,US,,,,Privé,,private,,,,,,,,,,,,,,,,,,,,,,,,,,,,,
ELEC,Southern California Edison - Songs Service Center,5000 Pacific Coast Hwy,,San Clemente,CA,92674,,,E,,Private,,,,,,,,,1 LP Inductive,,,GPS,33.52008,-117.760822,2012-07-31,27322,,T,,,,,,,,,US,,,,Privé,,private,,,,,,,,,,,,,,,,,,,,,,,,,,,,,
ELEC,Southern California Edison - South Bay Service Center,505 Maple Ave,,Torrance,CA,90503,,,E,,Private,,,,,,,,,11 SP Inductive,,,200-8,33.843659,-118.342405,2012-07-31,27323,,T,,,,,,,,,US,,,,Privé,,private,,,,,,,,,,,,,,,,,,,,,,,,,,,,,
ELEC,Southern California Edison - Thousand Oaks Service Center,3589 Foothill Dr,,Thousand Oaks,CA,91361,,,E,,Private,,,,,,,,,1 LP Inductive  2 SP Inductive,,,GPS,34.1621502,-118.8359401,2012-07-31,27324,,T,,,,,,,,,US,,,,Privé,,private,,,,,,,,,,,,,,,,,,,,,,,,,,,,,
ELEC,Southern California Edison - Valencia Service Center,25625 W Rye Canyon Rd,,Valencia,CA,91355,,,E,,Private,,,,,,,,,3 SP Inductive,,,200-8,34.4337728,-118.5855526,2012-07-31,27325,,T,,,,,,,,,US,,,,Privé,,private,,,,,,,,,,,,,,,,,,,,,,,,,,,,,
ELEC,Southern California Edison - Ventura Service Center,10060 Telegraph Rd,,Ventura,CA,93004,,,E,,Private,,,,,,,,,7 SP Inductive,,,200-8,34.2860491,-119.1762718,2012-07-31,27326,,T,,,,,,,,,US,,,,Privé,,private,,,,,,,,,,,,,,,,,,,,,,,,,,,,,
ELEC,Benicia City Hall ,250 E L St,,Benicia,CA,94510,,707-449-5424,E,,Public,24 hours daily,,,,,,1,,1 SP Inductive,,,GPS,38.052033,-122.153,2013-04-25,27327,2014-01-20 18:27:25 UTC,LG,,,,,,,,,US,,,,Public,,public,,,,,,,,,,,,,,,,,,,,,,,,,,,,,
ELEC,Fairfield City Hall,1000 Webster St,,Fairfield,CA,94533,,707-428-7414,E,,Public,24 hours daily,,,,,,2,,,,,200-8,38.2514613,-122.0433643,2013-12-31,27328,,LG,,,,,,,,,US,,,,Public,,public,,,,,,,,,,,,,,,,,,,,,,,,,,,,,
ELEC,Solano Community College,4000 Suisun Valley Rd,,Fairfield,CA,94534,,707-449-5424,E,,Public,24 hours daily,,,,,,3,,1 SP Inductive,,,GPS,38.23723,-122.123,2013-08-25,27329,,LG,,,,,,,,,US,,,,Public,,public,,,,,,,,,,,,,,,,,,,,,,,,,,,,,
ELEC,Suisun City Civic Center,701 Civic Center Blvd,,Suisun City,CA,94585,,707-449-5424,E,,Public,24 hours daily,,,,,,1,,1 SP Inductive,,,GPS,38.23753,-122.037,2013-12-31,27330,,LG,,,,,,,,,US,,,,Public,,public,,,,,,,,,,,,,,,,,,,,,,,,,,,,,
ELEC,Suisun Amtrak Station Park & Ride Lot,650 Lotz Way,At Main St,Suisun City,CA,94585,,707-449-5424,E,,Public,24 hours daily,,,,,,1,,1 SP Inductive,,,GPS,38.24337,-122.04,2013-12-31,27331,,LG,,,,,,,,,US,,,,Public,,public,,,,,,,,,,,,,,,,,,,,,,,,,,,,,
ELEC,Bella Vista Road Park & Ride Lot - Tesla,782 Davis Ct,,Vacaville,CA,95687,,707-449-5424,E,,Public,24 hours daily,,,,,,1,,,,,GPS,38.34962,-121.987,2013-03-31,27332,,LG,,,,,,,,,US,,,,Public,,public,,,,,,,,,,,,,,,,,,,,,,,,,,,,,
ELEC,Vallejo Ferry Terminal,495 Mare Island Way,,Vallejo,CA,94590,,707-449-5424,E,,Public,24 hours daily,,,,,,,,2 SP Inductive  1 Avcon Conductive  1 Tesla Conductive,,,200-8,38.1025259,-122.2640626,2013-08-25,27335,,LG,,,,,,,,,US,,,,Public,,public,,,,,,,,,,,,,,,,,,,,,,,,,,,,,
ELEC,Amtrak Park & Ride,365 Church St,At N Grant St,Roseville,CA,95678,,916-774-5293,E,,Public,24 hours daily,,,,,,,,1 SP Inductive  1 Avcon Conductive,,,200-8,38.7445627,-121.2956723,2012-12-31,27336,,T,,,,,,,,,US,,,,Public,,public,,,,,,,,,,,,,,,,,,,,,,,,,,,,,
ELEC,PGE - 1WTC P2,121 SW Salmon Street,,Portland,OR,97204,,888-998-2546,E,,Public,MON: 24 hours | TUE: 24 hours | WED: 24 hours | THU: 24 hours | FRI: 24 hours | SAT: 24 hours | SUN: 24 hours,,,,,,3,,,Blink Network,http://www.blinkcharging.com/,GPS,45.515985,-122.675055,2014-01-30,27753,2014-01-29 08:15:15 UTC,,,,,,,,,,US,,,,Public,,public,,,,,,,,,,,,,,,,,,,,,,,,,,,,,
ELEC,Sacramento International Airport - Terminal A Garage - Daily,Lindbergh Dr,"Levels 2, 3, 4, 5, and 6",Sacramento,CA,95837,,916-929-5411,E,,Public,24 hours daily; pay lot,,,,,,10,,5 SP Inductive,,,GPS,38.69033,-121.5871,2013-12-31,28005,,P,,,,,,,,,US,,,,Public,,public,,,,,,,,,,,,,,,,,,,,,,,,,,,,,
ELEC,Sacramento International Airport - Terminal A Garage - Hourly,Lindbergh Dr,Level 1,Sacramento,CA,95837,,916-929-5411,E,,Public,24 hours daily; pay lot,,,,,,2,,1 SP Inductive,,,GPS,38.69033,-121.5871,2013-12-31,28006,,P,,,,,,,,,US,,,,Public,,public,,,,,,,,,,,,,,,,,,,,,,,,,,,,,
ELEC,Los Angeles International Airport (LAX) - Lot 1 ,1 World Way,Central Terminal Area (CTA) - P1,Los Angeles,CA,90045,,424-646-7275  888-758-4389,E,,Public,24 hours daily; pay lot,,,,,,13,,3 SP Inductive,,,GPS,33.94474,-118.4,2013-09-25,28007,2014-01-20 18:06:18 UTC,LG,,,,,,,,,US,,,,Public,,public,,,,,,,,,,,,,,,,,,,,,,,,,,,,,
ELEC,CALTECH,405 S Wilson Ave,,Pasadena,CA,91106,,888-758-4389,E,,Public,24 hours daily,,,,,,2,,,ChargePoint Network,http://www.chargepoint.com/,200-8,34.1384874,-118.1282761,2014-01-30,28008,2014-01-30 08:13:43 UTC,,,,,,,,,,US,,,,Public,,public,,,,,,,,,,,,,,,,,,,,,,,,,,,,,
ELEC,Smart Park,123 SW Jefferson,Enter on Jefferson St side. Located in short term area to the right.,Portland,OR,97209,,503-823-2897,E,,Public - Call ahead,24 hours daily; pay lot,,,,,1,1,,1 Conductive 120V/240V NEMA 14-50,,,200-8,45.51399,-122.676,2012-06-25,28453,,P,,,,,,,,,US,,,,Public - Appeler à l'avance,,public,CALL,,,,,,,,,,,,,,,,,,,,,,,,,,,,
ELEC,SAN JOSE,44 S 4th St,,San Jose,CA,95112,,888-758-4389,E,,Public,24 hours daily,,,,,3,6,,,ChargePoint Network,http://www.chargepoint.com/,200-8,37.3368338,-121.8861582,2014-01-30,28844,2014-01-30 08:17:11 UTC,,,,,,,,,,US,,,,Public,,public,,,,,,,,,,,,,,,,,,,,,,,,,,,,,
ELEC,Pheasant Ridge RV Park,8275 SW Elligsen Rd,"I-5 exit 286 toward Wilsonville/Stafford, turn on SW Elligsen Road, 0.5 mile to park.",Wilsonville,OR,97070,,503-682-7829,E,,Public - Call ahead,"8am-8pm daily; payment required, space restriction depending on season. Call ahead and ask for the manager (Terri)",,,,,,,,130 Conductive 120V or 240V,,,200-8,45.335978,-122.761949,2013-04-30,29377,,P,,,,,,,,,US,,,,Public - Appeler à l'avance,,public,CALL,,,,,,,,,,,,,,,,,,,,,,,,,,,,
ELEC,The Famous Pearson Fuel Depot,4067 El Cajon Blvd.,,San Diego,CA,92105,,888-998-2546,E,,Public,MON: 24 hours | TUE: 24 hours | WED: 24 hours | THU: 24 hours | FRI: 24 hours | SAT: 24 hours | SUN: 24 hours,,,,,,5,,,Blink Network,http://www.blinkcharging.com/,GPS,32.754954,-117.107457,2014-01-30,29684,2014-01-29 08:15:05 UTC,,,,,,,,,,US,,,,Public,,public,,,,,,,,,,,,,,,,,,,,,,,,,,,,,
ELEC,Vacaville Police Headquarters,660 Merchant St,,Vacaville,CA,95688,,,E,,Private - Government only,,,,,,,,,2 SP Inductive,,,200-8,38.3501299,-121.9949806,2013-08-25,29862,,LG,,,,,,,,,US,,,,Privé - Réservé au gouvernement,,private,GOVERNMENT,,,,,,,,,,,,,,,,,,,,,,,,,,,,
ELEC,Solano County Government Center Parking Structure,501 Union Ave,,Fairfield,CA,94533,,707-449-5424,E,,Public,24 hours daily,,,,,,4,,1 SP Inductive,,,GPS,38.2470715,-122.0405343,2013-12-31,29863,,LG,,,,,,,,,US,,,,Public,,public,,,,,,,,,,,,,,,,,,,,,,,,,,,,,
ELEC,Mult Co - Hillsdale Public Library,1525 SW Sunset Blvd,,Portland,OR,97239,,888-998-2546,E,,Public,MON: 10:00am-8:00pm | TUE: 10:00am-8:00pm | WED: 10:00am-8:00pm | THU: 10:00am-8:00pm | FRI: 10:00am-8:00pm | SAT: 10:00am-8:00pm | SUN: 12:00pm-5:00pm,,,,,,2,,,Blink Network,http://www.blinkcharging.com/,GPS,45.479667,-122.693655,2014-01-30,29881,2014-01-29 08:10:15 UTC,,,,,,,,,,US,,,,Public,,public,,,,,,,,,,,,,,,,,,,,,,,,,,,,,
ELEC,Old Town Smart Park,33 NW Davis St,"At SW 1st Ave. Located in garage, above maintenance vehicle parking.",Portland,OR,97209,,503-823-2898,E,,Public,24 hours daily,Cash M V,,,,1,,,1 Conductive 120V/240V NEMA 14-30,,,200-8,45.5247,-122.671,2012-06-25,30383,,LG,,,,,,,,,US,,,,Public,,public,,,,,,,,,,,,,,,,,,,,,,,,,,,,,
ELEC,Southern California Edison - Redlands Service Center,287 Tennessee St,,Redlands,CA,92373,,,E,,Private,,,,,,,,,3 SP Inductive,,,200-8,34.0554254,-117.2000263,2012-07-31,32849,,T,,,,,,,,,US,,,,Privé,,private,,,,,,,,,,,,,,,,,,,,,,,,,,,,,
ELEC,Southern California Edison - Sacramento Office,1201 K St,,Sacramento,CA,95831,,,E,,Private,,,,,,,1,,,,,200-8,38.5786564,-121.4908975,2012-07-31,32850,,T,,,,,,,,,US,,,,Privé,,private,,,,,,,,,,,,,,,,,,,,,,,,,,,,,
ELEC,Southern California Edison - San Francisco Office,601 Van Ness Ave,,San Francisco,CA,94102,,,E,,Private,,,,,,,1,,Bosch is a preferred distributor for Voltec.,,,GPS,37.78130341,-122.4206,2012-07-31,32852,2014-01-20 18:06:15 UTC,T,,,,,,,,,US,,,,Privé,,private,,,,,,,,,,,,,,,,,,,,,,,,,,,,,
ELEC,Southern California Edison - San Jacinto Service Center,26100 Menifee Rd,,Romoland,CA,92585,,,E,,Private,,,,,,,,,4 SP Inductive,,,200-8,33.7400971,-117.1540652,2012-07-31,32853,,T,,,,,,,,,US,,,,Privé,,private,,,,,,,,,,,,,,,,,,,,,,,,,,,,,
ELEC,Southern California Edison - Victorville Service Center,12353 Hesperia Rd,,Victorville,CA,92392,,,E,,Private,,,,,,,,,1 SP Inductive,,,200-8,34.475937,-117.289514,2012-07-31,32854,,T,,,,,,,,,US,,,,Privé,,private,,,,,,,,,,,,,,,,,,,,,,,,,,,,,
ELEC,Burlington International Airport,1200 Airport Dr,1st Floor Parking Garage,South Burlington,VT,05403,,802-863-2874,E,,Private,Employee use only,,,,,,,,2 Avcon Conductive,,,GPS,44.469281,-73.154972,2013-03-31,32973,2014-01-20 18:09:36 UTC,LG,,,,,,,,,US,,,,Privé,,private,,,,,,,,,,,,,,,,,,,,,,,,,,,,,
ELEC,LADWP - Boylston,1141 W 2nd St,At Beaudry Ave,Los Angeles,CA,90026,,,E,,Private - Government only,,,,,,,,,1 Conductive,,,200-8,34.0582929,-118.2557788,2012-12-31,33177,,LG,,,,,,,,,US,,,,Privé - Réservé au gouvernement,,private,GOVERNMENT,,,,,,,,,,,,,,,,,,,,,,,,,,,,
ELEC,LADWP - Central District,1324 S Wall St,North of 15th St,Los Angeles,CA,90015,,,E,,Private - Government only,,,,,,,,,1 Conductive,,,200-8,34.033429,-118.2570014,2012-12-31,33178,,LG,,,,,,,,,US,,,,Privé - Réservé au gouvernement,,private,GOVERNMENT,,,,,,,,,,,,,,,,,,,,,,,,,,,,
ELEC,LADWP - Lincoln Heights District,3101 Artesian St,Between W Ave 26 and W Ave 33,Los Angeles,CA,90031,,,E,,Private - Government only,,,,,,,20,,,,,200-8,34.0820573,-118.2171527,2013-12-31,33179,,LG,,,,,,,,,US,,,,Privé - Réservé au gouvernement,,private,GOVERNMENT,,,,,,,,,,,,,,,,,,,,,,,,,,,,
ELEC,LADWP - Receiving Station C,900 E Lomita Blvd,East of Wilmington Ave,Wilmington,CA,90744,,,E,,Private - Government only,,,,,,,,,1 Conductive,,,200-8,33.7994415,-118.2584214,2012-12-31,33180,,LG,,,,,,,,,US,,,,Privé - Réservé au gouvernement,,private,GOVERNMENT,,,,,,,,,,,,,,,,,,,,,,,,,,,,
ELEC,LADWP - Valley Center Admin Lot,14401 Saticoy St,At Van Nuys Blvd,Van Nuys,CA,91405,,,E,,Private - Government only,,,,,,,,,1 Other Conductive,,,200-8,34.2087577,-118.4444,2012-12-31,33182,,LG,,,,,,,,,US,,,,Privé - Réservé au gouvernement,,private,GOVERNMENT,,,,,,,,,,,,,,,,,,,,,,,,,,,,
ELEC,LADWP - Valley Generating Station,11801 Sheldon St,Between Glenoaks Blvd and San Fernando Rd,Sun Valley,CA,91352,,,E,,Private - Government only,,,,,,,,,1 Conductive,,,200-8,34.2420746,-118.3899441,2012-12-31,33183,,LG,,,,,,,,,US,,,,Privé - Réservé au gouvernement,,private,GOVERNMENT,,,,,,,,,,,,,,,,,,,,,,,,,,,,
ELEC,City of Lacey - City Hall Parking,420 College St,"At 3rd Ave SE, next to police station",Lacey,WA,98503,,360-491-3214,E,,Public,24 hours daily,,,,,4,,,,,,200-8,47.04437,-122.823,2012-06-25,33351,,LG,,,,,,,,,US,,,,Public,,public,,,,,,,,,,,,,,,,,,,,,,,,,,,,,
ELEC,Lacey Timberland Library,500 College St SE,"At 6th Ave SE, located in front of building",Lacey,WA,98503,,360-491-3860,E,,Public,24 hours daily,,,,,1,,,,,,200-8,47.04389,-122.823,2012-06-25,33352,,LG,,,,,,,,,US,,,,Public,,public,,,,,,,,,,,,,,,,,,,,,,,,,,,,,
ELEC,Elgin Public Parking Garage,95 Symphony Way,Parking spot reserved for electric vehicles,Elgin,IL,60120,,847-931-5651,E,,Public,24 hours daily,,,,,1,1,,,,,200-8,42.0403396,-88.285242,2013-12-31,33353,,LG,,,,,,,,,US,,,,Public,,public,,,,,,,,,,,,,,,,,,,,,,,,,,,,,
ELEC,Village of Northbrook - Village Hall,1225 Cedar Ln,"Northwest corner of South Lot behind Village Hall, parking spot reserved for electric vehicles",Northbrook,IL,60062,,,E,,Public,24 hours daily,,,,,,,,1 Avcon Conductive 1 Conductive 120V,,,200-8,42.129225,-87.830741,2013-12-31,33354,,LG,,,,,,,,,US,,,,Public,,public,,,,,,,,,,,,,,,,,,,,,,,,,,,,,
ELEC,Aurora Transportation Center,233 N Broadway,Parking spot reserved for electric vehicles,Aurora,IL,60505,,630-256-4636,E,,Public,24 hours daily,,,,,,,,1 Avcon Conductive,,,200-8,41.7649421,-88.3076462,2013-12-31,33356,,LG,,,,,,,,,US,,,,Public,,public,,,,,,,,,,,,,,,,,,,,,,,,,,,,,
ELEC,City of Lake Oswego,209 A Ave,North side of A Ave at 2nd St in front of Shell Station,Lake Oswego,OR,97034,,503-892-7345,E,,Public,24 hours daily,,,,,4,,,,,,200-8,45.419911,-122.6658574,2013-07-31,33377,,LG,,,,,,,,,US,,,,Public,,public,,,,,,,,,,,,,,,,,,,,,,,,,,,,,
ELEC,Oregon Museum of Science and Industry (OMSI) - East Parking Lot,1945 SE Water Ave,Under solar canopy in east parking lot,Portland,OR,97214,,503-892-7345,E,,Public,24 hours daily,,,,,2,1,,,,,200-8,45.50812,-122.665002,2013-07-31,33378,,P,,,,,,,,,US,,,,Public,,public,,,,,,,,,,,,,,,,,,,,,,,,,,,,,
ELEC,City of Oregon City,1220 Main St,East side of Main St between 12th and 13th in front of Park-N-Ride,Oregon City,OR,97045,,503-892-7345,E,,Public,24 hours daily,,,,,4,,,,,,200-8,45.360956,-122.602292,2013-07-31,33464,,LG,,,,,,,,,US,,,,Public,,public,,,,,,,,,,,,,,,,,,,,,,,,,,,,,
ELEC,Portland General Electric - Salem Office,4245 Kale St NE,"At Highway 99 (Portland Rd), in PGE parking lot",Salem,OR,97305,,503-892-7345  503-239-4404,E,,Public,24 hours daily,,,,,1,1,,,,,200-8,44.9971669,-122.9772389,2013-07-31,33465,,T,,,,,,,,,US,,,,Public,,public,,,,,,,,,,,,,,,,,,,,,,,,,,,,,
ELEC,Stanford University,360 Oak Rd,Parking Structure 5,Stanford,CA,94305,,888-758-4389,E,,Public,24 hours daily; permit required 6am-4pm M-F,,,,,,,,1 SP Inductive,,,GPS,37.43201447,-122.1823654,2012-12-31,33539,2014-01-20 18:25:15 UTC,P,,,,,,,,,US,,,,Public,,public,,,,,,,,,,,,,,,,,,,,,,,,,,,,,
ELEC,Paso Robles RV Ranch & Campground,398 Exline Rd,,Paso Robles,CA,93446,,805-237-8685,E,,Public,8:30am-5pm daily; pay lot,,,,,1,1,,1 Conductive,,,GPS,35.682304,-120.702174,2012-07-31,33541,,P,,,,,,,,,US,,,,Public,,public,,,,,,,,,,,,,,,,,,,,,,,,,,,,,
ELEC,Meadow Park - Truckee-Donner Historical Society,10115 Donner Trail Rd,,Truckee,CA,96161,,530-582-0893,E,,Public,24 hours daily,,,,,1,1,,1 SP Inductive,,,GPS,39.32732,-120.215,2013-12-31,33543,,P,,,,,,,,,US,,,,Public,,public,,,,,,,,,,,,,,,,,,,,,,,,,,,,,
ELEC,City of Ukiah Public Parking Lot,N Oak & W Standley St,,Ukiah,CA,95482,,707-467-5711,E,,Public,24 hours daily,,,,,,3,,1 SP Inductive,,,GPS,39.15,-123.2091,2013-12-31,33544,,LG,,,,,,,,,US,,,,Public,,public,,,,,,,,,,,,,,,,,,,,,,,,,,,,,
ELEC,Nut Tree Village,1651 E Monte Vista Ave,,Vacaville,CA,95688,,707-449-5424,E,,Public,24 hours daily,,,,,1,1,,1 SP Inductive,,,200-8,38.3687086,-121.9612667,2013-12-31,33545,,P,,,,,,,,,US,,,,Public,,public,,,,,,,,,,,,,,,,,,,,,,,,,,,,,
ELEC,City of West Hollywood - Plummer Park,7377 Santa Monica Blvd,,West Hollywood,CA,90069,,888-998-2546,E,,Public,MON: 24 hours | TUE: 24 hours | WED: 24 hours | THU: 24 hours | FRI: 24 hours | SAT: 24 hours | SUN: 24 hours,,,,,,2,,,Blink Network,http://www.blinkcharging.com/,GPS,34.092549,-118.351258,2014-01-30,33547,2014-01-29 08:18:54 UTC,,,,,,,,,,US,,,,Public,,public,,,,,,,,,,,,,,,,,,,,,,,,,,,,,
ELEC,California Fuel Cell Partnership,3300 Industrial Blvd,,West Sacramento,CA,95691,,916-371-2870,E,,Public - Call ahead,,,,,,,1,,1 Avcon Conductive,,,200-8,38.57424,-121.557443,2013-12-31,33548,,P,,,,,,,,,US,,,,Public - Appeler à l'avance,,public,CALL,,,,,,,,,,,,,,,,,,,,,,,,,,,,
ELEC,Placer County Community Development Resource Center,3091 County Center Dr,,Auburn,CA,95603,,530-745-3197,E,,Public,24 hours daily,,,,,,1,,,,,GPS,38.9412492,-121.1054805,2013-05-31,33550,,P,,,,,,,,,US,,,,Public,,public,,,,,,,,,,,,,,,,,,,,,,,,,,,,,
ELEC,Center Street Garage,2025 Center St,Between Shattuck and Milvia Streets,Berkeley,CA,94704,,510-843-1788,E,,Public,Garage business hours; pay lot,,,,,,1,,1 SP Inductive,,,GPS,37.87012863,-122.2702103,2013-12-31,33551,2014-01-20 18:19:33 UTC,P,,,,,,,,,US,,,,Public,,public,,,,,,,,,,,,,,,,,,,,,,,,,,,,,
ELEC,Colfax Railroad Depot - Amtrak Station,1 S Railroad Ave,99 Railroad St at Grass Valley St,Colfax,CA,95713,,530-346-2313,E,,Public,24 hours daily,,,,,1,1,,1 SP Inductive,,,GPS,39.099117,-120.9532,2013-12-31,33553,,P,,,,,,,,,US,,,,Public,,public,,,,,,,,,,,,,,,,,,,,,,,,,,,,,
ELEC,4th and G Plaza Public Parking Garage,4th St & G St,Entrance on 4th St,Davis,CA,95616,,530-753-7730,E,,Public,24 hours daily,,,,,3,1,,1 SP Inductive,,,GPS,38.54643,-121.7388,2013-12-31,33555,,P,,,,,,,,,US,,,,Public,,public,,,,,,,,,,,,,,,,,,,,,,,,,,,,,
ELEC,Davis Amtrak Station,840 2nd St,2nd & H St,Davis,CA,95616,,530-757-5685,E,,Public,24 hours daily,,,,,,1,,1 SP Inductive,,,GPS,38.5443,-121.738,2013-12-31,33556,,P,,,,,,,,,US,,,,Public,,public,,,,,,,,,,,,,,,,,,,,,,,,,,,,,
ELEC,UC Davis Parking Garage,6 Howard Way,Between Russell Blvd & North Quad,Davis,CA,95616,,530-752-8277,E,,Public,24 hours daily; pay lot; permit required 7am-10pm M-F,,,,,2,1,,1 SP Inductive,,,200-8,38.544345,-121.75026,2013-12-31,33557,,P,,,,,,,,,US,,,,Public,,public,,,,,,,,,,,,,,,,,,,,,,,,,,,,,
ELEC,University Covenant Church,315 Mace Blvd,,Davis,CA,95616,,530-756-3923,E,,Public,24 hours daily,,,,,,1,,1 SP Inductive,,,GPS,38.55755,-121.6947,2013-12-31,33558,,P,,,,,,,,,US,,,,Public,,public,,,,,,,,,,,,,,,,,,,,,,,,,,,,,
ELEC,Wildhorse Golf Club,2323 Rockwell Dr,,Davis,CA,95618,,530-753-4900,E,,Public,24 hours daily; customer use only,,,,,,2,,,,,200-8,38.573359,-121.719193,2013-12-31,33559,,P,,,,,,,,,US,,,,Public,,public,,,,,,,,,,,,,,,,,,,,,,,,,,,,,
ELEC,Ciudad del Rey Motel & Trailer Park,50557 Wild Horse Rd,At US-101,King City,CA,93930,,831-385-4828,E,,Public - Call ahead,Pay lot,,,,,,,,6 Conductive 120V/240V NEMA 14-50,,,GPS,36.188975,-121.075858,2012-12-31,33563,,P,,,,,,,,,US,,,,Public - Appeler à l'avance,,public,CALL,,,,,,,,,,,,,,,,,,,,,,,,,,,,
ELEC,Lakewood Center Mall,4500 Silva St,,Lakewood,CA,90712,,562-531-6707,E,,Public,24 hours daily,,,,,,2,,,,,GPS,33.84788,-118.13889,2013-03-25,33564,,P,,,,,,,,,US,,,,Public,,public,,,,,,,,,,,,,,,,,,,,,,,,,,,,,
ELEC,West Custom House Garage,Tyler St,Between Franklin St and Del Monte Ave. Connectors provided for stations to be compatible with all PEVs.,Monterey,CA,93940,,831-646-3953,E,,Public,24 hours daily; 4 hour parking 9am-6pm M-F,,,,,,,,1 SP Inductive  1 Avcon Conductive  1 Conductive,,,GPS,36.60003,-121.8936,2012-12-25,33566,,P,,,,,,,,,US,,,,Public,,public,,,,,,,,,,,,,,,,,,,,,,,,,,,,,
ELEC,Napa Premium Outlets,629 Factory Stores Drive,,Napa,CA,94558,,800-663-5633,E,,Public - Card key at all times,MO: Not Specified; TU: Not Specified; WE: Not Specified; TH: Not Specified; FR: Not Specified; SA: Not Specified; SU: Not Specified,,,,,,2,,,SemaCharge Network,https://semaconnect.com/,GPS,38.295981,-122.303226,2014-01-30,33568,2014-01-29 08:25:26 UTC,,,,,,,,,,US,,,,Public - Carte-clé en tout temps,,public,KEY_ALWAYS,,,,,,,,,,,,,,,,,,,,,,,,,,,,
ELEC,City of Santa Monica - Virginia Avenue Park,2200 Virginia Ave,Accessible from Virginia and Pico Ave,Santa Monica,CA,90404,,310-458-8516,E,,Public,6am-11pm daily,,,,,,4,,1 SP Inductive  1 Avcon Inductive,,,200-8,34.0220292,-118.4687695,2013-08-31,33679,,LG,,,,,,,,,US,,,,Public,,public,,,,,,,,,,,,,,,,,,,,,,,,,,,,,
ELEC,Thunderstruck Motors,3200 Dutton Ave,,Santa Rosa,CA,95407,,707-827-7973,E,,Public,9am-5pm M-F,,,,,,,,1 SP Inductive  1 Avcon Conductive,,,200-8,38.398705,-122.722125,2012-12-31,33680,,P,,,,,,,,,US,,,,Public,,public,,,,,,,,,,,,,,,,,,,,,,,,,,,,,
ELEC,Fry's Electronics,1077 E Arques Ave,,Sunnyvale,CA,94085,,408-617-1300  408-487-4500,E,,Public,24 hours daily,,,,,,,,1 SP Inductive  1 Avcon Conductive,,,200-8,37.3825602,-122.0007682,2012-12-31,33681,,P,,,,,,,,,US,,,,Public,,public,,,,,,,,,,,,,,,,,,,,,,,,,,,,,
ELEC,Sunnyvale CalTrain Station,W Evelyn Ave & S Murphy Ave,,Sunnyvale,CA,94086,,800-660-4287,E,,Public,Garage business hours; pay lot,,,,,,1,,1 SP Inductive,,,GPS,37.37793,-122.03,2013-12-31,33682,,P,,,,,,,,,US,,,,Public,,public,,,,,,,,,,,,,,,,,,,,,,,,,,,,,
ELEC,Los Angeles Public Library - Lake View Terrace Branch,12002 Osborne Ave,,Sylmar,CA,91342,,818-890-7404,E,,Public,Library business hours,,,,,,,,1 Avcon Conductive,,,200-8,34.272812,-118.394014,2012-12-25,33683,,LG,,,,,,,,,US,,,,Public,,public,,,,,,,,,,,,,,,,,,,,,,,,,,,,,
ELEC,SMUD Customer Service Center - Customer Parking Lot,6301 S St,,Sacramento,CA,95817,,916-452-3211,E,,Public,24 hours daily,,,,,,1,,1 SP Inductive,,,200-8,38.5518426,-121.4291905,2012-07-31,33685,,T,,,,,,,,,US,,,,Public,,public,,,,,,,,,,,,,,,,,,,,,,,,,,,,,
ELEC,Costco Carmel Mountain - Rancho Bernardo,12350 Carmel Mountain Rd,,San Diego,CA,92128,,858-675-0248,E,,Public,24 hours daily,,,,,,,,2 SP Inductive  1 Avcon Conductive,,,200-8,32.988461,-117.0764743,2012-10-31,33687,,P,,,,,,,,,US,,,,Public,,public,,,,,,,,,,,,,,,,,,,,,,,,,,,,,
ELEC,5th & Mission Garage,833 Mission St,Chargers located near the scooter rental,San Francisco,CA,94103,,888-758-4389,E,,Public,24 hours daily; pay lot,,,,,4,,,1 SP Inductive,,,GPS,37.78291702,-122.406,2013-02-28,33688,2014-01-20 18:23:05 UTC,P,,,,,,,,,US,,,,Public,,public,,,,,,,,,,,,,,,,,,,,,,,,,,,,,
ELEC,Golden Gate Ferry Terminal,101 E Sir Francis Drake Blvd,,Larkspur,CA,94939,,415-925-5571,E,,Public,24 hours daily; pay lot,,,,,,1,,1 SP Inductive,,,GPS,37.94495,-122.5096,2013-12-31,33690,,P,,,,,,,,,US,,,,Public,,public,,,,,,,,,,,,,,,,,,,,,,,,,,,,,
ELEC,The Presentation Center,19480 Bear Creek Rd,,Los Gatos,CA,95033,,408 354-2346,E,,Public - Call ahead,8am-4:30pm M-F,,,,,2,1,,1 SP Inductive,,,GPS,37.17488,-122.009,2013-12-31,33691,,P,,,,,,,,,US,,,,Public - Appeler à l'avance,,public,CALL,,,,,,,,,,,,,,,,,,,,,,,,,,,,
ELEC,Facebook - Building 17,1601 Willow Rd,,Menlo Park,CA,94025,,888-758-4389,E,,Public,24 hours daily,,,,,,1,,,,,200-8,37.48325,-122.15,2012-08-31,33692,2014-01-20 18:19:26 UTC,P,,,,,,,,,US,,,,Public,,public,,,,,,,,,,,,,,,,,,,,,,,,,,,,,
ELEC,Jack London Square,466 Water St,Embarcadero West & Broadway,Oakland,CA,94607,,510-645-9292,E,,Public,24 hours daily; pay lot,,,,,,1,,,,,GPS,37.795336,-122.2769,2013-12-31,33694,,P,,,,,,,,,US,,,,Public,,public,,,,,,,,,,,,,,,,,,,,,,,,,,,,,
ELEC,Oakland Airport - Daily B Lot,1 Airport Way,,Oakland,CA,94621,,510-563-3300,E,,Public,24 hours daily; pay lot,,,,,,2,,,,,200-8,37.7294959,-122.2001954,2013-01-31,33695,,P,,,,,,,,,US,,,,Public,,public,,,,,,,,,,,,,,,,,,,,,,,,,,,,,
ELEC,CCSF-SFMTA,733 Kearny St,,San Francisco,CA,94108,,888-758-4389,E,,Public,24 hours daily,,,,,,2,,,ChargePoint Network,http://www.chargepoint.com/,200-8,37.7947992,-122.4049693,2014-01-30,33700,2014-01-30 09:20:12 UTC,,,,,,,,,,US,,,,Public,,public,,,,,,,,,,,,,,,,,,,,,,,,,,,,,
ELEC,Presidio - Main Post,Anza Ave,Near Owen St,San Francisco,CA,94129,,415-561-5418,P,2012-08-15,PLANNED - not yet accessible,24 hours daily,,,,,,,,2 Other Conductive,,,GPS,37.80034,-122.45778,2011-12-31,33701,,P,,,,,,,,,US,,,,PRÉVU - pas encore accessible,,,,,,,,,,,,,,,,,,,,,,,,,,,,,,,
ELEC,Reid-Hillview Airport,2500 Cunningham Ave,,San Jose,CA,95148,,408-918-7700,E,,Public,24 hours daily,,,,,2,2,,1 Avcon Conductive  1 Conductive 120V/240V NEMA 14-50,,,200-8,37.3359851,-121.8197694,2013-12-31,33704,,P,,,,,,,,,US,,,,Public,,public,,,,,,,,,,,,,,,,,,,,,,,,,,,,,
ELEC,City of Santa Monica - Montana Avenue,1101 Montana Ave,Curbside,Santa Monica,CA,90403,,310-458-8516,E,,Public,24 hours daily,,,,,,1,,1 SP Inductive,,,200-8,34.030347,-118.498017,2013-08-31,33706,,LG,,,,,,,,,US,,,,Public,,public,,,,,,,,,,,,,,,,,,,,,,,,,,,,,
ELEC,Seattle-Tacoma International Airport,17801 Pacific Hwy S,5th floor parking garage,Seattle,WA,98188,,206-433-5308,E,,Public,24 hours daily; pay lot,,,,,6,,,,,,200-8,47.4434755,-122.2962554,2013-11-25,33717,,P,,,,,,,,,US,,,,Public,,public,,,,,,,,,,,,,,,,,,,,,,,,,,,,,
ELEC,SAN JOSE,200 E Santa Clara St,,San Jose,CA,95113,,888-758-4389,E,,Public,24 hours daily,,,,,2,2,,,ChargePoint Network,http://www.chargepoint.com/,200-8,37.3381139,-121.8858462,2014-01-30,33718,2014-01-30 08:17:51 UTC,,,,,,,,,,US,,,,Public,,public,,,,,,,,,,,,,,,,,,,,,,,,,,,,,
ELEC,City of Champaign - Hill Street Parking Deck,123 W Hill St,"From Neil St head west on Hill or enter the deck from Randolph St between Church and Hill. Four charging stations on 3rd floor, east end of parking deck.",Champaign,IL,61820,,217-403-6160,E,,Public,24 hours daily; pay lot,D M V,,,,,,,4 Avcon Conductive,,,200-8,40.1192192,-88.2445908,2012-11-25,33921,,LG,,,,,,,,,US,,,,Public,,public,,,,,,,,,,,,,,,,,,,,,,,,,,,,,
ELEC,Federal Courthouse Parking Ramp,300 S 4th St,,Minneapolis,MN,55415,,,E,,Private,,,,,,,,,1 Conductive 120V,,,200-8,44.97823,-93.2647,2012-08-31,33925,,LG,,,,,,,,,US,,,,Privé,,private,,,,,,,,,,,,,,,,,,,,,,,,,,,,,
ELEC,EV Idaho,16111 Hollow Rd,,Caldwell,ID,83607,,208-230-0030,E,,Public,24 hours daily,,,,,,,,1 Conductive 120V  1 Conductive 220V,,,200-8,43.7932119,-116.714946,2013-03-31,34099,,P,,,,,,,,,US,,,,Public,,public,,,,,,,,,,,,,,,,,,,,,,,,,,,,,
ELEC,Sue A Cook Design Inc,307 E 37th St,,Garden City,ID,83714,,208-344-5809,E,,Public,8am-5pm M-F,,,,,,,,1 Conductive 120V,,,200-8,43.6274859,-116.2392521,2013-03-31,34101,,P,,,,,,,,,US,,,,Public,,public,,,,,,,,,,,,,,,,,,,,,,,,,,,,,
ELEC,Discovery Center of Idaho,131 W Myrtle St,,Boise,ID,83702,,208-343-9895,E,,Public,9am-5pm M-F,,,,,2,,,,,,200-8,43.6085473,-116.1985573,2013-03-31,34106,,P,,,,,,,,,US,,,,Public,,public,,,,,,,,,,,,,,,,,,,,,,,,,,,,,
ELEC,Travis Park United Methodist Church,230 E Travis St,At the church parking lot on Travis Street,San Antonio,TX,78205,,210-226-8341,E,,Public,24 hours daily,,,,,1,,,,,,200-8,29.4274729,-98.4905516,2012-11-25,34829,,P,,,,,,,,,US,,,,Public,,public,,,,,,,,,,,,,,,,,,,,,,,,,,,,,
ELEC,City of Keizer,930 Chemawa Rd NE,,Salem,OR,97303,,503-892-7345  503-390-3700,E,,Public,24 hours daily,,,,,4,,,,,,200-8,44.9958095,-123.0201957,2013-07-31,34849,,SG,,,,,,,,,US,,,,Public,,public,,,,,,,,,,,,,,,,,,,,,,,,,,,,,
ELEC,Oregon Department of Energy,625 Marion St NE,,Salem,OR,97301,,503-378-3265,E,,Private,Employee and visitor use only,,,,,2,,,,,,200-8,44.94399,-123.033,2012-06-25,34850,,SG,,,,,,,,,US,,,,Privé,,private,,,,,,,,,,,,,,,,,,,,,,,,,,,,,
ELEC,North Carolina State University - Partners I Lot,1017 Main Campus Dr,,Raleigh,NC,27606,,503-892-7345,E,,Public,24 hours daily,,,,,,2,,,,,200-8,35.7702063,-78.6776385,2013-01-31,34851,,SG,,,,,,,,,US,,,,Public,,public,,,,,,,,,,,,,,,,,,,,,,,,,,,,,
ELEC,Atlantic County Utilities Authority - Shorepower,6700 Delilah Rd,,Egg Harbor Township,NJ,08234,,609-272-6950  503-892-7345,E,,Public,"7am-5pm M-F, 7am-12pm Sat",,,,,2,,,,,,GPS,39.417467,-74.53968,2013-07-31,34854,2014-01-20 18:10:08 UTC,P,,,,,,,,,US,,,,Public,,public,,,,,,,,,,,,,,,,,,,,,,,,,,,,,
ELEC,"HILLSBORO, OR",102 E Main St,,Hillsboro,OR,97123,,888-758-4389,E,,Public,24 hours daily,,,,,,1,,,ChargePoint Network,http://www.chargepoint.com/,GPS,45.5225754,-122.9889145,2014-01-30,34855,2014-01-29 08:31:37 UTC,,,,,,,,,,US,,,,Public,,public,,,,,,,,,,,,,,,,,,,,,,,,,,,,,
ELEC,Shorenstein Realty,5500 SW Meadows Rd,,Lake Oswego,OR,97035,,503-892-7345,E,,Public,24 hours daily,,,,,4,,,,,,200-8,45.4175588,-122.7341275,2013-07-31,34857,,P,,,,,,,,,US,,,,Public,,public,,,,,,,,,,,,,,,,,,,,,,,,,,,,,
ELEC,City of Milwaukie,10722 SE Main St,SE Main and SE Jackson,Milwaukie,OR,97222,,503-786-7555  503-786-7555,E,,Public,24 hours daily,,,,,8,,,,,,200-8,45.4449044,-122.6411851,2013-07-31,34858,,LG,,,,,,,,,US,,,,Public,,public,,,,,,,,,,,,,,,,,,,,,,,,,,,,,
ELEC,Nike - Shorepower,1 Bowerman Dr,,Beaverton,OR,97006,,,E,,Private,Employee and visitor use only,,,,,8,,,,,,GPS,45.507083,-122.825569,2013-07-31,34859,,P,,,,,,,,,US,,,,Privé,,private,,,,,,,,,,,,,,,,,,,,,,,,,,,,,
ELEC,Clackamas County Building,150 S Beavercreek Rd,"Beavercreek Rd and Library Ct; In Parking Lot ""K"" next to building",Oregon City,OR,97045,,503-892-7345,E,,Public,24 hours daily,,,,,4,,,,,,200-8,45.3340087,-122.5988402,2013-07-31,34860,,LG,,,,,,,,,US,,,,Public,,public,,,,,,,,,,,,,,,,,,,,,,,,,,,,,
ELEC,City of Corvallis - Elements Building,517 SW 2nd St,In front of Strega Restaurant,Corvallis,OR,97333,,,E,,Public,7am-11pm daily; four hour maximum,,,,,,,,2 Conductive 120V,,,200-8,44.5597,-123.262,2012-06-25,34862,,LG,,,,,,,,,US,,,,Public,,public,,,,,,,,,,,,,,,,,,,,,,,,,,,,,
ELEC,Stoller Vineyards & Winery,16161 NE McDougall Rd,,Dayton,OR,97114,,,E,,Private,,,,,,,,,1 Conductive 120V,,,200-8,45.23944,-123.075,2012-06-25,34863,,P,,,,,,,,,US,,,,Privé,,private,,,,,,,,,,,,,,,,,,,,,,,,,,,,,
ELEC,City of Portland,1221 SW 4th Ave,SW 4th Ave & SW Madison St,Portland,OR,97204,,503-892-7345,E,,Public,24 hours daily,,,,,2,,,,,,200-8,45.5149009,-122.6786639,2013-07-31,34867,,T,,,,,,,,,US,,,,Public,,public,,,,,,,,,,,,,,,,,,,,,,,,,,,,,
ELEC,West Hills Collision Center,8300 SW Barbur Blvd,,Portland,OR,97219,,503-245-9030,E,,Public,24 hours daily,,,,,1,,,,,,200-8,45.4646944,-122.6988519,2013-04-30,34868,2014-01-20 18:21:15 UTC,P,,,,,,,,,US,,,,Public,,public,,,,,,,,,,,,,,,,,,,,,,,,,,,,,
ELEC,CHARGEPOINT,1692 Dell Ave,,Campbell,CA,95008,,888-758-4389,E,,Public,24 hours daily,,,,,,6,,,ChargePoint Network,http://www.chargepoint.com/,200-8,37.261444,-121.957627,2014-01-30,35141,2014-01-30 08:23:21 UTC,,,,,,,,,,US,,,,Public,,public,,,,,,,,,,,,,,,,,,,,,,,,,,,,,
ELEC,SIERRA NEVADA,1075 E 20th St,,Chico,CA,95928,,888-758-4389,E,,Public,24 hours daily,,,,,1,1,,,ChargePoint Network,http://www.chargepoint.com/,GPS,39.7242546,-121.8138504,2014-01-30,35143,2014-01-29 08:24:46 UTC,,,,,,,,,,US,,,,Public,,public,,,,,,,,,,,,,,,,,,,,,,,,,,,,,
ELEC,DMC Green - Elk Grove,8999 Elk Grove Blvd,,Elk Grove,CA,95624,,888-758-4389,P,2013-08-31,PLANNED - not yet accessible,24 hours daily,,,,,1,,,,,,200-8,38.409248,-121.367404,2012-12-25,35145,,P,,,,,,,,,US,,,,PRÉVU - pas encore accessible,,,,,,,,,,,,,,,,,,,,,,,,,,,,,,,
ELEC,Fairfield Transportation Center,2000 Cadenasso Dr,,Fairfield,CA,94533,,707-449-5424,E,,Public,24 hours daily,,,,,,,,2 Tesla Conductive,,,200-8,38.248456,-122.068439,2013-08-25,35146,,P,,,,,,,,,US,,,,Public,,public,,,,,,,,,,,,,,,,,,,,,,,,,,,,,
ELEC,San Francisco City Hall,1 Dr Carlton B Goodlet Pl,,San Francisco,CA,94102,,,E,,Private,City vehicle use only,,,,,1,1,,,ChargePoint Network,http://www.chargepoint.com/,GPS,37.77913,-122.418,2013-11-30,35149,2014-01-20 18:24:07 UTC,LG,,,,,,,,,US,,,,Privé,,private,,,,,,,,,,,,,,,,,,,,,,,,,,,,,
ELEC,Sonoma County,2688 Ventura Ave,,Santa Rosa,CA,95403,,,E,,Private,,,,,,8,8,,,ChargePoint Network,http://www.chargepoint.com/,GPS,38.46649551,-122.7237396,2013-11-30,35150,,LG,,,,,,,,,US,,,,Privé,,private,,,,,,,,,,,,,,,,,,,,,,,,,,,,,
ELEC,COUNTY SONOMA,575 Administration Dr,,Santa Rosa,CA,95403,,888-758-4389,E,,Public,24 hours daily,,,,,2,2,,,ChargePoint Network,http://www.chargepoint.com/,200-8,38.4647144,-122.7256102,2014-01-30,35151,2014-01-30 08:39:54 UTC,,,,,,,,,,US,,,,Public,,public,,,,,,,,,,,,,,,,,,,,,,,,,,,,,
ELEC,QUICK MOUNT PV,2700 Mitchell Dr,,Walnut Creek,CA,94598,,888-758-4389,E,,Public,24 hours daily,,,,,2,,,,ChargePoint Network,http://www.chargepoint.com/,200-8,37.9323439,-122.0193546,2014-01-30,35153,2014-01-30 08:39:58 UTC,,,,,,,,,,US,,,,Public,,public,,,,,,,,,,,,,,,,,,,,,,,,,,,,,
ELEC,WALNUT CREEK,1625 Locust St,,Walnut Creek,CA,94596,,888-758-4389,E,,Public,24 hours daily,,,,,1,1,,,ChargePoint Network,http://www.chargepoint.com/,GPS,37.900959,-122.0626373,2014-01-30,35154,2014-01-30 08:39:52 UTC,,,,,,,,,,US,,,,Public,,public,,,,,,,,,,,,,,,,,,,,,,,,,,,,,
ELEC,WALNUT CREEK,1390 N Broadway,,Walnut Creek,CA,94596,,888-758-4389,E,,Public,24 hours daily,,,,,1,1,,,ChargePoint Network,http://www.chargepoint.com/,GPS,37.8991165,-122.0591736,2014-01-30,35155,2014-01-30 08:39:53 UTC,,,,,,,,,,US,,,,Public,,public,,,,,,,,,,,,,,,,,,,,,,,,,,,,,
ELEC,WALNUT CREEK,1350 Locust St,,Walnut Creek,CA,94596,,888-758-4389,E,,Public,24 hours daily,,,,,1,1,,,ChargePoint Network,http://www.chargepoint.com/,GPS,37.8981934,-122.0609665,2014-01-30,35156,2014-01-30 08:39:53 UTC,,,,,,,,,,US,,,,Public,,public,,,,,,,,,,,,,,,,,,,,,,,,,,,,,
ELEC,Conoco - West Sacramento,705 Harbor Pointe Pl,1-80 and Reed Ave,West Sacramento,CA,95605,,916-371-1674,E,,Public,24 hours daily,,,,,1,,,,,,200-8,38.591591,-121.554855,2012-12-31,35157,,P,,,,,,,,,US,,,,Public,,public,,,,,,,,,,,,,,,,,,,,,,,,,,,,,
ELEC,SOLAR SOURCE,10840 Endeavour Way,,Seminole,FL,33777,,888-758-4389,E,,Public,24 hours daily,,,,,1,,,,ChargePoint Network,http://www.chargepoint.com/,GPS,27.8699551,-82.7352295,2014-01-30,35159,2014-01-29 08:24:54 UTC,,,,,,,,,,US,,,,Public,,public,,,,,,,,,,,,,,,,,,,,,,,,,,,,,
ELEC,ELEMENT LEX,727 Marrett Rd,,Lexington,MA,02421,,888-758-4389,E,,Public,24 hours daily,,,,,1,1,,,ChargePoint Network,http://www.chargepoint.com/,GPS,42.4453155,-71.260713,2014-01-30,35162,2014-01-29 08:45:00 UTC,,,,,,,,,,US,,,,Public,,public,,,,,,,,,,,,,,,,,,,,,,,,,,,,,
ELEC,MCDONALDS,1299 Kildaire Farm Rd,,Cary,NC,27511,,888-758-4389,E,,Public,24 hours daily,,,,,1,1,,,ChargePoint Network,http://www.chargepoint.com/,200-8,35.762246,-78.782909,2014-01-30,35163,2014-01-30 08:39:55 UTC,,,,,,,,,,US,,,,Public,,public,,,,,,,,,,,,,,,,,,,,,,,,,,,,,
ELEC,METRO NASHVILLE,800 2nd Ave S,,Nashville,TN,37210,,888-758-4389,E,,Public,24 hours daily,,,,,2,2,,,ChargePoint Network,http://www.chargepoint.com/,200-8,36.152863,-86.769193,2014-01-30,35165,2014-01-30 08:40:07 UTC,,,,,,,,,,US,,,,Public,,public,,,,,,,,,,,,,,,,,,,,,,,,,,,,,
ELEC,ADVANCEDVEHICLE,500 Stinson Dr,,Danville,VA,24540,,888-758-4389,E,,Public,24 hours daily,,,,,,1,,,ChargePoint Network,http://www.chargepoint.com/,GPS,36.5734558,-79.3538589,2014-01-30,35166,2014-01-30 08:40:29 UTC,,,,,,,,,,US,,,,Public,,public,,,,,,,,,,,,,,,,,,,,,,,,,,,,,
ELEC,I-64 East Rest Stop,I-64 E and VA-155,I-64 between milepost 214 and 213 in Virginia,Providence Forge,VA,23140,,800-367-7623,E,,Public,24 hours daily,,,,,4,,,,,,GPS,37.499039,-77.04316,2013-12-31,35167,,SG,,,,,,,,,US,,,,Public,,public,,,,,,,,,,,,,,,,,,,,,,,,,,,,,
ELEC,I-64 West Rest Stop,I-64 W and VA-155,I-64 between milepost 214 and 213 in Virginia,Providence Forge,VA,23140,,800-367-7623,E,,Public,24 hours daily,,,,,4,,,,,,GPS,37.498704,-77.04348,2013-12-31,35168,,SG,,,,,,,,,US,,,,Public,,public,,,,,,,,,,,,,,,,,,,,,,,,,,,,,
ELEC,LINCOLN CITY,1226 SW 50th St,,Lincoln City,OR,97367,,888-758-4389,E,,Public,24 hours daily,,,,,1,1,,,ChargePoint Network,http://www.chargepoint.com/,GPS,44.9283791,-124.015831,2014-01-30,35258,2014-01-29 08:25:16 UTC,,,,,,,,,,US,,,,Public,,public,,,,,,,,,,,,,,,,,,,,,,,,,,,,,
ELEC,BOOKMANS,1930 E Grant Rd,,Tucson,AZ,85719,,888-758-4389,E,,Public,24 hours daily,,,,,1,1,,,ChargePoint Network,http://www.chargepoint.com/,GPS,32.2499199,-110.9429016,2014-01-30,35264,2014-01-29 08:25:02 UTC,,,,,,,,,,US,,,,Public,,public,,,,,,,,,,,,,,,,,,,,,,,,,,,,,
ELEC,IRON EAGLE TECH,2012 High St,,Elk Horn,IA,51531,,888-758-4389,E,,Public,24 hours daily,,,,,2,2,,,ChargePoint Network,http://www.chargepoint.com/,200-8,41.5989041,-95.0548551,2014-01-30,35266,2014-01-30 08:40:15 UTC,,,,,,,,,,US,,,,Public,,public,,,,,,,,,,,,,,,,,,,,,,,,,,,,,
ELEC,IRON EAGLE TECH,4038 Main St,,Elk Horn,IA,51531,,888-758-4389,E,,Public,24 hours daily,,,,,2,2,,,ChargePoint Network,http://www.chargepoint.com/,200-8,41.5897549,-95.060834,2014-01-30,35268,2014-01-30 08:40:13 UTC,,,,,,,,,,US,,,,Public,,public,,,,,,,,,,,,,,,,,,,,,,,,,,,,,
